[{"PhoneInfoResponse": {"@xmlns": "http://www.serviceobjects.com", "@xmlns:i": "http://www.w3.org/2001/XMLSchema-instance", "PhoneInfo": {"Provider": {"Name": "VERIZON WIRELESS-CA", "City": "SANTA ROSA", "State": "CALIFORNIA", "Latitude": "38.457", "Longitude": "-122.706", "LineType": "WIRELESS"}, "Contacts": {"Contact": {"Name": "JOAN MCLAIN", "Address": null, "City": null, "State": null, "PostalCode": null, "PhoneType": "RESIDENTIAL", "Latitude": null, "Longitude": null, "SICCode": null, "SICDesc": null, "QualityScore": "MED"}}, "SMSAddress": "7077554748@vtext.com", "MMSAddress": "7077554748@mypixmessages.com", "DateFirstSeen": null, "DateOfPorting": "2013-11-17", "NoteCodes": "3,4", "NoteDescriptions": "IsPorted,IsWireless", "TokensUsed": "35"}}}, {"PhoneInfoResponse": {"@xmlns": "http://www.serviceobjects.com", "@xmlns:i": "http://www.w3.org/2001/XMLSchema-instance", "PhoneInfo": {"Provider": {"Name": "SOUTHWESTERN BELL", "City": "AUSTIN", "State": "TEXAS", "Latitude": "30.2943", "Longitude": "-97.7705", "LineType": "LANDLINE"}, "Contacts": {"Contact": {"Name": "AUSTIN REGIONAL CLINIC", "Address": null, "City": "AUSTIN", "State": "TX", "PostalCode": "78751", "PhoneType": "BUSINESS", "Latitude": null, "Longitude": null, "SICCode": null, "SICDesc": null, "QualityScore": "MED"}}, "SMSAddress": null, "MMSAddress": null, "DateFirstSeen": null, "DateOfPorting": "2003-12-11", "NoteCodes": "2,3", "NoteDescriptions": "IsConnected,IsPorted", "TokensUsed": "65"}}}, {"PhoneInfoResponse": {"@xmlns": "http://www.serviceobjects.com", "@xmlns:i": "http://www.w3.org/2001/XMLSchema-instance", "PhoneInfo": {"Provider": {"Name": "CABLEVSN LGHTPATH NY", "City": "FREEPORT", "State": "NEW YORK", "Latitude": "40.654", "Longitude": "-73.5859", "LineType": "LANDLINE"}, "Contacts": {"Contact": {"Name": "SAMARITAN VILLAGE INC", "Address": null, "City": "BROOKLYN", "State": "NY", "PostalCode": "11201", "PhoneType": "BUSINESS", "Latitude": null, "Longitude": null, "SICCode": null, "SICDesc": null, "QualityScore": "LOW"}}, "SMSAddress": null, "MMSAddress": null, "DateFirstSeen": null, "DateOfPorting": "2017-02-01", "NoteCodes": "3", "NoteDescriptions": "IsPorted", "TokensUsed": "65"}}}, {"PhoneInfoResponse": {"@xmlns": "http://www.serviceobjects.com", "@xmlns:i": "http://www.w3.org/2001/XMLSchema-instance", "PhoneInfo": {"Provider": {"Name": "COMCAST PHONE-IL", "City": "BRAIDWOOD", "State": "ILLINOIS", "Latitude": "41.2639", "Longitude": "-88.2175", "LineType": "VOIP"}, "Contacts": {"Contact": {"Name": "SCOTT D GLAZER", "Address": "600 W LAKE COOK RD", "City": "BUFFALO GROVE", "State": "IL", "PostalCode": "60089-2089", "PhoneType": "RESIDENTIAL", "Latitude": "42.152125", "Longitude": "-87.973722", "SICCode": "80110000", "SICDesc": "OFFICES AND CLINICS OF MEDICAL DOCTORS", "QualityScore": "HIGH"}}, "SMSAddress": null, "MMSAddress": null, "DateFirstSeen": null, "DateOfPorting": "2018-10-12", "NoteCodes": "1,2,3", "NoteDescriptions": "IsMailable,IsConnected,IsPorted", "TokensUsed": "65"}}}, {"PhoneInfoResponse": {"@xmlns": "http://www.serviceobjects.com", "@xmlns:i": "http://www.w3.org/2001/XMLSchema-instance", "PhoneInfo": {"Provider": {"Name": "BELLSOUTH SO CNTL", "City": "MONTGOMERY", "State": "ALABAMA", "Latitude": "32.378", "Longitude": "-86.2621", "LineType": "LANDLINE"}, "Contacts": {"Contact": {"Name": "ALABAMA STATE OF", "Address": null, "City": "MONTGOMERY", "State": "AL", "PostalCode": "36104", "PhoneType": "BUSINESS", "Latitude": null, "Longitude": null, "SICCode": null, "SICDesc": null, "QualityScore": "LOW"}}, "SMSAddress": null, "MMSAddress": null, "DateFirstSeen": null, "DateOfPorting": null, "NoteCodes": null, "NoteDescriptions": null, "TokensUsed": "65"}}}]