[{"PhoneInfoResponse": {"@xmlns": "http://www.serviceobjects.com", "@xmlns:i": "http://www.w3.org/2001/XMLSchema-instance", "PhoneInfo": {"Provider": {"Name": "CODETEL", "City": "SANTO DOMINGO", "State": "DR", "Latitude": null, "Longitude": null, "LineType": "UNKNOWN"}, "Contacts": {"Contact": {"Name": "SANTODMNGO DR", "Address": null, "City": null, "State": null, "PostalCode": null, "PhoneType": "BUSINESS", "Latitude": null, "Longitude": null, "SICCode": null, "SICDesc": null, "QualityScore": "MED"}}, "SMSAddress": null, "MMSAddress": null, "DateFirstSeen": null, "DateOfPorting": null, "NoteCodes": "2", "NoteDescriptions": "IsConnected", "TokensUsed": "65"}}}, {"PhoneInfoResponse": {"@xmlns": "http://www.serviceobjects.com", "@xmlns:i": "http://www.w3.org/2001/XMLSchema-instance", "PhoneInfo": {"Provider": {"Name": "AT&T, INC. - PR", "City": "BAYAMON", "State": "PUERTO RICO", "Latitude": "18.1798", "Longitude": "-66.1136", "LineType": "LANDLINE"}, "SMSAddress": null, "MMSAddress": null, "DateFirstSeen": null, "DateOfPorting": "2010-08-02", "NoteCodes": "3,5", "NoteDescriptions": "IsPorted,IsUnknownContact", "TokensUsed": "35"}}}, {"PhoneInfoResponse": {"@xmlns": "http://www.serviceobjects.com", "@xmlns:i": "http://www.w3.org/2001/XMLSchema-instance", "PhoneInfo": {"Provider": {"Name": "CTSI, INC. - PA", "City": "ALLENTOWN", "State": "PENNSYLVANIA", "Latitude": "40.591", "Longitude": "-75.5036", "LineType": "LANDLINE"}, "Contacts": {"Contact": {"Name": "LVPG ORTHOPEDICS AND SPORTS MEDICINE", "Address": "2597 SCHOENERSVILLE RD", "City": "BETHLEHEM", "State": "PA", "PostalCode": "18017-7325", "PhoneType": "BUSINESS", "Latitude": null, "Longitude": null, "SICCode": null, "SICDesc": null, "QualityScore": "LOW"}}, "SMSAddress": null, "MMSAddress": null, "DateFirstSeen": null, "DateOfPorting": "2008-01-28", "NoteCodes": "1,3,10,905", "NoteDescriptions": "IsMailable,IsPorted,IsPossibleDisconnected,INF", "TokensUsed": "65"}}}, {"PhoneInfoResponse": {"@xmlns": "http://www.serviceobjects.com", "@xmlns:i": "http://www.w3.org/2001/XMLSchema-instance", "PhoneInfo": {"Provider": {"Name": "TELEPORT COM AM - TX", "City": "SAN ANTONIO", "State": "TEXAS", "Latitude": "29.4731", "Longitude": "-98.505", "LineType": "LANDLINE"}, "Contacts": {"Contact": {"Name": "S TEX ONCOLOGY", "Address": null, "City": "SAN ANTONIO", "State": "TX", "PostalCode": "78229", "PhoneType": "BUSINESS", "Latitude": null, "Longitude": null, "SICCode": "80110000", "SICDesc": "OFFICES AND CLINICS OF MEDICAL DOCTORS", "QualityScore": "MED"}}, "SMSAddress": null, "MMSAddress": null, "DateFirstSeen": null, "DateOfPorting": "2016-01-15", "NoteCodes": "2,3", "NoteDescriptions": "IsConnected,IsPorted", "TokensUsed": "65"}}}, {"PhoneInfoResponse": {"@xmlns": "http://www.serviceobjects.com", "@xmlns:i": "http://www.w3.org/2001/XMLSchema-instance", "PhoneInfo": {"Provider": {"Name": "CBTS TECH SOL LLC-OH", "City": "CINCINNATI", "State": "OHIO", "Latitude": "39.17", "Longitude": "-84.4929", "LineType": "LANDLINE"}, "Contacts": {"Contact": {"Name": "ALLIANCE PRIMARY CARE MASON OH", "Address": "9311 MASON-MONTGOMER RD", "City": "CINCINNATI", "State": "OH", "PostalCode": "45219", "PhoneType": "BUSINESS", "Latitude": null, "Longitude": null, "SICCode": null, "SICDesc": null, "QualityScore": "LOW"}}, "SMSAddress": null, "MMSAddress": null, "DateFirstSeen": null, "DateOfPorting": "2010-08-27", "NoteCodes": "3,10,905", "NoteDescriptions": "IsPorted,IsPossibleDisconnected,INF", "TokensUsed": "65"}}}, {"PhoneInfoResponse": {"@xmlns": "http://www.serviceobjects.com", "@xmlns:i": "http://www.w3.org/2001/XMLSchema-instance", "PhoneInfo": {"Provider": {"Name": "VERIZON PENNSYLVANIA", "City": "PITTSBURGH", "State": "PENNSYLVANIA", "Latitude": "40.4473", "Longitude": "-79.9934", "LineType": "LANDLINE"}, "SMSAddress": null, "MMSAddress": null, "DateFirstSeen": null, "DateOfPorting": null, "NoteCodes": "5", "NoteDescriptions": "IsUnknownContact", "TokensUsed": "35"}}}, {"PhoneInfoResponse": {"@xmlns": "http://www.serviceobjects.com", "@xmlns:i": "http://www.w3.org/2001/XMLSchema-instance", "PhoneInfo": {"Provider": {"Name": "QWEST CORPORATION", "City": "IOWA CITY", "State": "IOWA", "Latitude": "41.662", "Longitude": "-91.5359", "LineType": "LANDLINE"}, "Contacts": {"Contact": {"Name": "UNIVERSITY OF IOWA HOSPITAL", "Address": "200 HAWKINS DR", "City": "IOWA CITY", "State": "IA", "PostalCode": "52242-1009", "PhoneType": "BUSINESS", "Latitude": null, "Longitude": null, "SICCode": null, "SICDesc": null, "QualityScore": "LOW"}}, "SMSAddress": null, "MMSAddress": null, "DateFirstSeen": null, "DateOfPorting": null, "NoteCodes": "1", "NoteDescriptions": "IsMailable", "TokensUsed": "65"}}}, {"PhoneInfoResponse": {"@xmlns": "http://www.serviceobjects.com", "@xmlns:i": "http://www.w3.org/2001/XMLSchema-instance", "PhoneInfo": {"Provider": {"Name": "FRONTIER NORTH - IL", "City": "MASCOUTAH", "State": "ILLINOIS", "Latitude": "38.471", "Longitude": "-89.777", "LineType": "LANDLINE"}, "Contacts": {"Contact": {"Name": "RURAL FAMILY MEDICINE ASSOCIATES PHYSICIANS", "Address": "739 N JEFFERSON ST", "City": "MASCOUTAH", "State": "IL", "PostalCode": "62258-1447", "PhoneType": "BUSINESS", "Latitude": "38.497131", "Longitude": "-89.793385", "SICCode": "80110000", "SICDesc": "OFFICES AND CLINICS OF MEDICAL DOCTORS", "QualityScore": "HIGH"}}, "SMSAddress": null, "MMSAddress": null, "DateFirstSeen": null, "DateOfPorting": null, "NoteCodes": "1,2", "NoteDescriptions": "IsMailable,IsConnected", "TokensUsed": "65"}}}, {"PhoneInfoResponse": {"@xmlns": "http://www.serviceobjects.com", "@xmlns:i": "http://www.w3.org/2001/XMLSchema-instance", "PhoneInfo": {"Provider": {"Name": "MAGNA5 LLC", "City": "SEATTLE", "State": "WASHINGTON", "Latitude": "47.5941", "Longitude": "-122.324", "LineType": "VOIP"}, "Contacts": {"Contact": {"Name": "MIKA SINANAN", "Address": "4311 11TH AVE NE STE 600", "City": "SEATTLE", "State": "WA", "PostalCode": "98105-6369", "PhoneType": "RESIDENTIAL", "Latitude": null, "Longitude": null, "SICCode": null, "SICDesc": null, "QualityScore": "LOW"}}, "SMSAddress": null, "MMSAddress": null, "DateFirstSeen": null, "DateOfPorting": "2013-09-10", "NoteCodes": "1,3", "NoteDescriptions": "IsMailable,IsPorted", "TokensUsed": "65"}}}, {"PhoneInfoResponse": {"@xmlns": "http://www.serviceobjects.com", "@xmlns:i": "http://www.w3.org/2001/XMLSchema-instance", "PhoneInfo": {"Provider": {"Name": "QWEST CORPORATION", "City": "PUEBLO", "State": "COLORADO", "Latitude": "38.2736", "Longitude": "-104.607", "LineType": "LANDLINE"}, "SMSAddress": null, "MMSAddress": null, "DateFirstSeen": null, "DateOfPorting": null, "NoteCodes": "5", "NoteDescriptions": "IsUnknownContact", "TokensUsed": "35"}}}, {"PhoneInfoResponse": {"@xmlns": "http://www.serviceobjects.com", "@xmlns:i": "http://www.w3.org/2001/XMLSchema-instance", "PhoneInfo": {"Provider": {"Name": "VONAGE NETWORK INC.", "City": "KANSAS CITY", "State": "MISSOURI", "Latitude": "39.1136", "Longitude": "-94.5682", "LineType": "LANDLINE"}, "Contacts": {"Contact": {"Name": "PLATTE COUNTY PEDIATRICS  DENTIST PEDIATRIC", "Address": "1104 PLATTE FALLS RD", "City": "PLATTE CITY", "State": "MO", "PostalCode": "64079-7629", "PhoneType": "BUSINESS", "Latitude": "39.353259", "Longitude": "-94.768137", "SICCode": "80110300", "SICDesc": "MEDICAL INSURANCE ASSOCIATIONS", "QualityScore": "LOW"}}, "SMSAddress": null, "MMSAddress": null, "DateFirstSeen": null, "DateOfPorting": "2019-04-18", "NoteCodes": "1,3", "NoteDescriptions": "IsMailable,IsPorted", "TokensUsed": "65"}}}, {"PhoneInfoResponse": {"@xmlns": "http://www.serviceobjects.com", "@xmlns:i": "http://www.w3.org/2001/XMLSchema-instance", "PhoneInfo": {"Provider": {"Name": "WINDSTREAM NUVOX-MO", "City": "KIRKWOOD", "State": "MISSOURI", "Latitude": "38.58032", "Longitude": "-90.40641", "LineType": "LANDLINE"}, "Contacts": {"Contact": {"Name": "SOUND AUDIOLOGY ST LOUIS ENT HEALTH HEARING AIDS", "Address": "1011 BOWLES AVE STE 405", "City": "FENTON", "State": "MO", "PostalCode": "63026-2387", "PhoneType": "BUSINESS", "Latitude": null, "Longitude": null, "SICCode": "80110000", "SICDesc": "OFFICES AND CLINICS OF MEDICAL DOCTORS", "QualityScore": "HIGH"}}, "SMSAddress": null, "MMSAddress": null, "DateFirstSeen": null, "DateOfPorting": "2009-03-27", "NoteCodes": "1,2,3", "NoteDescriptions": "IsMailable,IsConnected,IsPorted", "TokensUsed": "65"}}}, {"PhoneInfoResponse": {"@xmlns": "http://www.serviceobjects.com", "@xmlns:i": "http://www.w3.org/2001/XMLSchema-instance", "PhoneInfo": {"Provider": {"Name": "WEST TELECOM SVC-TN", "City": "NASHVILLE", "State": "TENNESSEE", "Latitude": "36.1519", "Longitude": "-86.7761", "LineType": "LANDLINE"}, "Contacts": {"Contact": {"Name": "RANDOLPH R FACS EVANS", "Address": "1670 W MAIN ST", "City": "LEBANON", "State": "TN", "PostalCode": "37087-1344", "PhoneType": "RESIDENTIAL", "Latitude": "36.220684", "Longitude": "-86.342499", "SICCode": "80420101,59950000", "SICDesc": "CONTACT LENSE SPECIALIST OPTOMETRIST,OPTICAL GOODS STORES", "QualityScore": "HIGH"}}, "SMSAddress": null, "MMSAddress": null, "DateFirstSeen": null, "DateOfPorting": "2018-04-19", "NoteCodes": "1,2,3", "NoteDescriptions": "IsMailable,IsConnected,IsPorted", "TokensUsed": "65"}}}, {"PhoneInfoResponse": {"@xmlns": "http://www.serviceobjects.com", "@xmlns:i": "http://www.w3.org/2001/XMLSchema-instance", "PhoneInfo": {"Provider": {"Name": "VERACITY COMMS - UT", "City": "PROVO", "State": "UTAH", "Latitude": "40.2328", "Longitude": "-111.668", "LineType": "LANDLINE"}, "Contacts": {"Contact": {"Name": "LYNN M GAUFIN", "Address": "1055 N 300 W", "City": "PROVO", "State": "UT", "PostalCode": "84604-3344", "PhoneType": "RESIDENTIAL", "Latitude": null, "Longitude": null, "SICCode": "80110000,65120200,80310000", "SICDesc": "OFFICES AND CLINICS OF MEDICAL DOCTORS,PROPERTY OPERATION, RETAIL ESTABLISHMENT,OFFICES AND CLINICS OF OSTEOPATHIC PHYSICIANS", "QualityScore": "HIGH"}}, "SMSAddress": null, "MMSAddress": null, "DateFirstSeen": null, "DateOfPorting": "2017-08-18", "NoteCodes": "1,2,3", "NoteDescriptions": "IsMailable,IsConnected,IsPorted", "TokensUsed": "65"}}}, {"PhoneInfoResponse": {"@xmlns": "http://www.serviceobjects.com", "@xmlns:i": "http://www.w3.org/2001/XMLSchema-instance", "PhoneInfo": {"Provider": {"Name": "TELEPORT COMM AM-MI", "City": "DETROIT", "State": "MICHIGAN", "Latitude": "42.3524", "Longitude": "-83.0703", "LineType": "LANDLINE"}, "Contacts": {"Contact": {"Name": "WSUPG", "Address": null, "City": "ROCHESTER", "State": "MI", "PostalCode": "48306", "PhoneType": null, "Latitude": null, "Longitude": null, "SICCode": "80110000,80310000,82210000", "SICDesc": "OFFICES AND CLINICS OF MEDICAL DOCTORS,OFFICES AND CLINICS OF OSTEOPATHIC PHYSICIANS,COLLEGES AND UNIVERSITIES", "QualityScore": "LOW"}}, "SMSAddress": null, "MMSAddress": null, "DateFirstSeen": null, "DateOfPorting": "2018-09-05", "NoteCodes": "3", "NoteDescriptions": "IsPorted", "TokensUsed": "65"}}}, {"PhoneInfoResponse": {"@xmlns": "http://www.serviceobjects.com", "@xmlns:i": "http://www.w3.org/2001/XMLSchema-instance", "PhoneInfo": {"Provider": {"Name": "FTC DIVERSIFIED SVCS", "City": "SUMTER", "State": "SOUTH CAROLINA", "Latitude": "33.8864", "Longitude": "-80.2856", "LineType": "LANDLINE"}, "Contacts": {"Contact": {"Name": "PROFESSIONAL PATHOLOGY SERVICES", "Address": null, "City": null, "State": null, "PostalCode": null, "PhoneType": "BUSINESS", "Latitude": null, "Longitude": null, "SICCode": null, "SICDesc": null, "QualityScore": "MED"}}, "SMSAddress": null, "MMSAddress": null, "DateFirstSeen": null, "DateOfPorting": null, "NoteCodes": null, "NoteDescriptions": null, "TokensUsed": "35"}}}, {"PhoneInfoResponse": {"@xmlns": "http://www.serviceobjects.com", "@xmlns:i": "http://www.w3.org/2001/XMLSchema-instance", "PhoneInfo": {"Provider": {"Name": "QWEST CORPORATION", "City": "SPOKANE", "State": "WASHINGTON", "Latitude": "47.677", "Longitude": "-117.368", "LineType": "LANDLINE"}, "Contacts": {"Contact": {"Name": "MCKESSON CORPORATION", "Address": null, "City": "SPOKANE", "State": "WA", "PostalCode": "99204", "PhoneType": "BUSINESS", "Latitude": null, "Longitude": null, "SICCode": null, "SICDesc": null, "QualityScore": "LOW"}}, "SMSAddress": null, "MMSAddress": null, "DateFirstSeen": null, "DateOfPorting": null, "NoteCodes": "10,905", "NoteDescriptions": "IsPossibleDisconnected,INF", "TokensUsed": "65"}}}, {"PhoneInfoResponse": {"@xmlns": "http://www.serviceobjects.com", "@xmlns:i": "http://www.w3.org/2001/XMLSchema-instance", "PhoneInfo": {"Provider": {"Name": "AIRUS, INC. - PA", "City": "PHILADELPHIA", "State": "PENNSYLVANIA", "Latitude": "39.9844", "Longitude": "-75.1534", "LineType": "LANDLINE"}, "Contacts": {"Contact": {"Name": "LAURA OPPENHEIM MD PHYSICIANS SURGEONS", "Address": "805 LOCUST ST", "City": "PHILADELPHIA", "State": "PA", "PostalCode": "19107-5507", "PhoneType": "BUSINESS", "Latitude": "39.947004", "Longitude": "-75.154905", "SICCode": null, "SICDesc": null, "QualityScore": "HIGH"}}, "SMSAddress": null, "MMSAddress": null, "DateFirstSeen": null, "DateOfPorting": "2016-07-05", "NoteCodes": "1,2,3", "NoteDescriptions": "IsMailable,IsConnected,IsPorted", "TokensUsed": "65"}}}, {"PhoneInfoResponse": {"@xmlns": "http://www.serviceobjects.com", "@xmlns:i": "http://www.w3.org/2001/XMLSchema-instance", "PhoneInfo": {"Provider": {"Name": "AMERITECH MICHIGAN", "City": "DETROIT", "State": "MICHIGAN", "Latitude": "42.3524", "Longitude": "-83.0703", "LineType": "LANDLINE"}, "Contacts": {"Contact": {"Name": "ST JOHN HEALTH", "Address": "22101 MOROSS RD", "City": "DETROIT", "State": "MI", "PostalCode": "48236-2148", "PhoneType": "BUSINESS", "Latitude": "42.418887", "Longitude": "-82.914764", "SICCode": null, "SICDesc": null, "QualityScore": "LOW"}}, "SMSAddress": null, "MMSAddress": null, "DateFirstSeen": null, "DateOfPorting": null, "NoteCodes": "1", "NoteDescriptions": "IsMailable", "TokensUsed": "65"}}}, {"PhoneInfoResponse": {"@xmlns": "http://www.serviceobjects.com", "@xmlns:i": "http://www.w3.org/2001/XMLSchema-instance", "PhoneInfo": {"Provider": {"Name": "ROGERS COMM CAN", "City": "BINBROOK", "State": "ONTARIO", "Latitude": "43.1277", "Longitude": "-79.7993", "LineType": "LANDLINE"}, "SMSAddress": null, "MMSAddress": null, "DateFirstSeen": null, "DateOfPorting": "2014-07-30", "NoteCodes": "3,5", "NoteDescriptions": "IsPorted,IsUnknownContact", "TokensUsed": "35"}}}, {"PhoneInfoResponse": {"@xmlns": "http://www.serviceobjects.com", "@xmlns:i": "http://www.w3.org/2001/XMLSchema-instance", "PhoneInfo": {"Provider": {"Name": "CENTURYLINK COMM", "City": "ALBUQUERQUE", "State": "NEW MEXICO", "Latitude": "35.096", "Longitude": "-106.62", "LineType": "LANDLINE"}, "Contacts": {"Contact": {"Name": "DR PAUL WARFIELD MD", "Address": "5400 GIBSON BLVD SE", "City": "ALBUQUERQUE", "State": "NM", "PostalCode": "87108-4729", "PhoneType": "BUSINESS", "Latitude": "35.058311", "Longitude": "-106.582052", "SICCode": "80110000,80110102,80310000", "SICDesc": "OFFICES AND CLINICS OF MEDICAL DOCTORS,ENDOCRINOLOGIST,OFFICES AND CLINICS OF OSTEOPATHIC PHYSICIANS", "QualityScore": "HIGH"}}, "SMSAddress": null, "MMSAddress": null, "DateFirstSeen": null, "DateOfPorting": "2017-06-15", "NoteCodes": "1,2,3", "NoteDescriptions": "IsMailable,IsConnected,IsPorted", "TokensUsed": "65"}}}, {"PhoneInfoResponse": {"@xmlns": "http://www.serviceobjects.com", "@xmlns:i": "http://www.w3.org/2001/XMLSchema-instance", "PhoneInfo": {"Provider": {"Name": "LIBERTY CABLEVSN-PR", "City": "YAUCO", "State": "PUERTO RICO", "Latitude": "18.0366", "Longitude": "-66.862", "LineType": "LANDLINE"}, "Contacts": {"Contact": {"Name": "VELASCO JUAN C", "Address": "40 CALLE 25 DE JULIO", "City": "YAUCO", "State": "PR", "PostalCode": "00698-3601", "PhoneType": "BUSINESS", "Latitude": null, "Longitude": null, "SICCode": null, "SICDesc": null, "QualityScore": "HIGH"}}, "SMSAddress": null, "MMSAddress": null, "DateFirstSeen": null, "DateOfPorting": "2016-11-23", "NoteCodes": "1,2,3", "NoteDescriptions": "IsMailable,IsConnected,IsPorted", "TokensUsed": "65"}}}, {"PhoneInfoResponse": {"@xmlns": "http://www.serviceobjects.com", "@xmlns:i": "http://www.w3.org/2001/XMLSchema-instance", "PhoneInfo": {"Provider": {"Name": "VERIZON MARYLAND INC", "City": "BALTIMORE", "State": "MARYLAND", "Latitude": "39.3157", "Longitude": "-76.6278", "LineType": "LANDLINE"}, "Contacts": {"Contact": {"Name": "JOHNS HOPKINS H", "Address": null, "City": "BALTIMORE", "State": "MD", "PostalCode": "21201", "PhoneType": "BUSINESS", "Latitude": null, "Longitude": null, "SICCode": null, "SICDesc": null, "QualityScore": "MED"}}, "SMSAddress": null, "MMSAddress": null, "DateFirstSeen": null, "DateOfPorting": null, "NoteCodes": "2", "NoteDescriptions": "IsConnected", "TokensUsed": "65"}}}, {"PhoneInfoResponse": {"@xmlns": "http://www.serviceobjects.com", "@xmlns:i": "http://www.w3.org/2001/XMLSchema-instance", "PhoneInfo": {"Provider": {"Name": "FRONTIER CALIFORNIA", "City": "WEST LOS ANGELES", "State": "CALIFORNIA", "Latitude": "34.0435", "Longitude": "-118.45", "LineType": "LANDLINE"}, "Contacts": {"Contact": {"Name": "UCLA DENTISTRY SCHOOL", "Address": null, "City": "LOS ANGELES", "State": "CA", "PostalCode": "90025", "PhoneType": "BUSINESS", "Latitude": null, "Longitude": null, "SICCode": null, "SICDesc": null, "QualityScore": "MED"}}, "SMSAddress": null, "MMSAddress": null, "DateFirstSeen": null, "DateOfPorting": null, "NoteCodes": "2", "NoteDescriptions": "IsConnected", "TokensUsed": "65"}}}, {"PhoneInfoResponse": {"@xmlns": "http://www.serviceobjects.com", "@xmlns:i": "http://www.w3.org/2001/XMLSchema-instance", "PhoneInfo": {"Provider": {"Name": "TELEPORT COM AM - LA", "City": "NEW ORLEANS", "State": "LOUISIANA", "Latitude": "29.9626", "Longitude": "-90.0683", "LineType": "LANDLINE"}, "Contacts": {"Contact": {"Name": "CHARLES BALLAY DR PHYSICIANS GENERAL", "Address": "1111 MEDICAL CENTER BLVD STE N707", "City": "MARRERO", "State": "LA", "PostalCode": "70072-3158", "PhoneType": "BUSINESS", "Latitude": null, "Longitude": null, "SICCode": null, "SICDesc": null, "QualityScore": "HIGH"}}, "SMSAddress": null, "MMSAddress": null, "DateFirstSeen": null, "DateOfPorting": "2018-06-06", "NoteCodes": "1,2,3", "NoteDescriptions": "IsMailable,IsConnected,IsPorted", "TokensUsed": "65"}}}, {"PhoneInfoResponse": {"@xmlns": "http://www.serviceobjects.com", "@xmlns:i": "http://www.w3.org/2001/XMLSchema-instance", "PhoneInfo": {"Provider": {"Name": "TELEPORT COMM AM-IL", "City": "ELWOOD", "State": "ILLINOIS", "Latitude": "41.424", "Longitude": "-88.0843", "LineType": "LANDLINE"}, "Contacts": {"Contact": {"Name": "THE SURGEONS GROUP", "Address": "800 N WESTMORELAND RD STE 205", "City": "LAKE FOREST", "State": "IL", "PostalCode": "60045-1687", "PhoneType": "BUSINESS", "Latitude": "42.256062", "Longitude": "-87.864017", "SICCode": "80110000", "SICDesc": "OFFICES AND CLINICS OF MEDICAL DOCTORS", "QualityScore": "LOW"}}, "SMSAddress": null, "MMSAddress": null, "DateFirstSeen": null, "DateOfPorting": "2017-07-24", "NoteCodes": "1,3,10,905", "NoteDescriptions": "IsMailable,IsPorted,IsPossibleDisconnected,INF", "TokensUsed": "65"}}}, {"PhoneInfoResponse": {"@xmlns": "http://www.serviceobjects.com", "@xmlns:i": "http://www.w3.org/2001/XMLSchema-instance", "PhoneInfo": {"Provider": {"Name": "XO COMM SVCS INC-PA", "City": "CATASAUQUA", "State": "PENNSYLVANIA", "Latitude": "40.6521", "Longitude": "-75.4666", "LineType": "VOIP"}, "Contacts": {"Contact": {"Name": "PENN MEDICINE WOODBURY", "Address": null, "City": "PHILADELPHIA", "State": "PA", "PostalCode": "19107", "PhoneType": "BUSINESS", "Latitude": null, "Longitude": null, "SICCode": null, "SICDesc": null, "QualityScore": "MED"}}, "SMSAddress": null, "MMSAddress": null, "DateFirstSeen": null, "DateOfPorting": "2018-10-16", "NoteCodes": "2,3", "NoteDescriptions": "IsConnected,IsPorted", "TokensUsed": "65"}}}, {"PhoneInfoResponse": {"@xmlns": "http://www.serviceobjects.com", "@xmlns:i": "http://www.w3.org/2001/XMLSchema-instance", "PhoneInfo": {"Provider": {"Name": "DELTACOM, INC. - AL", "City": "GREENSBORO", "State": "ALABAMA", "Latitude": "32.7019", "Longitude": "-87.5982", "LineType": "LANDLINE"}, "Contacts": {"Contact": {"Name": "FAISON, SARAH", "Address": null, "City": null, "State": null, "PostalCode": null, "PhoneType": "UNKNOWN", "Latitude": null, "Longitude": null, "SICCode": null, "SICDesc": null, "QualityScore": "MED"}}, "SMSAddress": null, "MMSAddress": null, "DateFirstSeen": null, "DateOfPorting": "2017-09-06", "NoteCodes": "3", "NoteDescriptions": "IsPorted", "TokensUsed": "35"}}}, {"PhoneInfoResponse": {"@xmlns": "http://www.serviceobjects.com", "@xmlns:i": "http://www.w3.org/2001/XMLSchema-instance", "PhoneInfo": {"Provider": {"Name": "LIBERTY CABLEVSN-PR", "City": "BAYAMON", "State": "PUERTO RICO", "Latitude": "18.1798", "Longitude": "-66.1136", "LineType": "LANDLINE"}, "Contacts": {"Contact": {"Name": "SEDA RODRIGUEZ JAFFED", "Address": "1845 CARR 2", "City": "BAYAMON", "State": "PR", "PostalCode": "00959-7200", "PhoneType": "BUSINESS", "Latitude": null, "Longitude": null, "SICCode": null, "SICDesc": null, "QualityScore": "HIGH"}}, "SMSAddress": null, "MMSAddress": null, "DateFirstSeen": null, "DateOfPorting": "2018-09-11", "NoteCodes": "1,2,3", "NoteDescriptions": "IsMailable,IsConnected,IsPorted", "TokensUsed": "65"}}}, {"PhoneInfoResponse": {"@xmlns": "http://www.serviceobjects.com", "@xmlns:i": "http://www.w3.org/2001/XMLSchema-instance", "PhoneInfo": {"Provider": {"Name": "QWEST CORPORATION", "City": "WINDSOR", "State": "COLORADO", "Latitude": "40.4786", "Longitude": "-104.901", "LineType": "LANDLINE"}, "Contacts": {"Contact": {"Name": "EGLE BAKANAUSKAS MD", "Address": "1455 MAIN ST STE 100", "City": "WINDSOR", "State": "CO", "PostalCode": "80550-5559", "PhoneType": "BUSINESS", "Latitude": null, "Longitude": null, "SICCode": "80110000,80490000", "SICDesc": "OFFICES AND CLINICS OF MEDICAL DOCTORS,OFFICES OF HEALTH PRACTITIONER", "QualityScore": "LOW"}}, "SMSAddress": null, "MMSAddress": null, "DateFirstSeen": null, "DateOfPorting": null, "NoteCodes": "1,10,905", "NoteDescriptions": "IsMailable,IsPossibleDisconnected,INF", "TokensUsed": "65"}}}, {"PhoneInfoResponse": {"@xmlns": "http://www.serviceobjects.com", "@xmlns:i": "http://www.w3.org/2001/XMLSchema-instance", "PhoneInfo": {"Provider": {"Name": "PACIFIC BELL", "City": "CANOGA PARK", "State": "CALIFORNIA", "Latitude": "34.2098", "Longitude": "-118.612", "LineType": "LANDLINE"}, "Contacts": {"Contact": {"Name": "KAISER PERMANEN", "Address": null, "City": "WOODLAND HILLS", "State": "CA", "PostalCode": "91302", "PhoneType": "BUSINESS", "Latitude": null, "Longitude": null, "SICCode": null, "SICDesc": null, "QualityScore": "MED"}}, "SMSAddress": null, "MMSAddress": null, "DateFirstSeen": null, "DateOfPorting": "2014-09-11", "NoteCodes": "2,3", "NoteDescriptions": "IsConnected,IsPorted", "TokensUsed": "65"}}}, {"PhoneInfoResponse": {"@xmlns": "http://www.serviceobjects.com", "@xmlns:i": "http://www.w3.org/2001/XMLSchema-instance", "PhoneInfo": {"Provider": {"Name": "FRONTIER COMM OF FL", "City": "TAMPA", "State": "FLORIDA", "Latitude": "27.9896", "Longitude": "-82.4746", "LineType": "LANDLINE"}, "Contacts": {"Contact": {"Name": "BRANDON REGIONAL HOSPITAL SPINE CENTER PHYSICIANS", "Address": "119 OAKFIELD DR", "City": "BRANDON", "State": "FL", "PostalCode": "33511-5779", "PhoneType": "BUSINESS", "Latitude": "27.934071", "Longitude": "-82.287031", "SICCode": "80620000", "SICDesc": "GENERAL MEDICAL AND SURGICAL HOSPITALS", "QualityScore": "HIGH"}}, "SMSAddress": null, "MMSAddress": null, "DateFirstSeen": null, "DateOfPorting": null, "NoteCodes": "1,2", "NoteDescriptions": "IsMailable,IsConnected", "TokensUsed": "65"}}}, {"PhoneInfoResponse": {"@xmlns": "http://www.serviceobjects.com", "@xmlns:i": "http://www.w3.org/2001/XMLSchema-instance", "PhoneInfo": {"Provider": {"Name": "CENTURYLINK COMM", "City": "ALBUQUERQUE", "State": "NEW MEXICO", "Latitude": "35.096", "Longitude": "-106.62", "LineType": "LANDLINE"}, "Contacts": {"Contact": {"Name": "GENERAL SURGERY ASSOCIATES", "Address": "2450 S TELSHOR BLVD", "City": "LAS CRUCES", "State": "NM", "PostalCode": "88011-5141", "PhoneType": "BUSINESS", "Latitude": null, "Longitude": null, "SICCode": null, "SICDesc": null, "QualityScore": "LOW"}}, "SMSAddress": null, "MMSAddress": null, "DateFirstSeen": null, "DateOfPorting": "2016-06-30", "NoteCodes": "1,3", "NoteDescriptions": "IsMailable,IsPorted", "TokensUsed": "65"}}}, {"PhoneInfoResponse": {"@xmlns": "http://www.serviceobjects.com", "@xmlns:i": "http://www.w3.org/2001/XMLSchema-instance", "PhoneInfo": {"Provider": {"Name": "VERIZON NEW ENGLAND", "City": "BOSTON", "State": "MASSACHUSETTS", "Latitude": "42.3461", "Longitude": "-71.0635", "LineType": "LANDLINE"}, "Contacts": {"Contact": {"Name": "NEW ENGLAND EYE", "Address": null, "City": "BOSTON", "State": "MA", "PostalCode": "02111", "PhoneType": "BUSINESS", "Latitude": null, "Longitude": null, "SICCode": null, "SICDesc": null, "QualityScore": "LOW"}}, "SMSAddress": null, "MMSAddress": null, "DateFirstSeen": null, "DateOfPorting": null, "NoteCodes": null, "NoteDescriptions": null, "TokensUsed": "65"}}}, {"PhoneInfoResponse": {"@xmlns": "http://www.serviceobjects.com", "@xmlns:i": "http://www.w3.org/2001/XMLSchema-instance", "PhoneInfo": {"Provider": {"Name": "FRONTIER CALIFORNIA", "City": "SANTA MONICA", "State": "CALIFORNIA", "Latitude": "34.0185", "Longitude": "-118.484", "LineType": "LANDLINE"}, "Contacts": {"Contact": {"Name": "DAVID STOLL MD PHYSICIANS SURGEONS", "Address": "2021 SANTA MONICA BLVD STE 520E", "City": "SANTA MONICA", "State": "CA", "PostalCode": "90404-2161", "PhoneType": "BUSINESS", "Latitude": null, "Longitude": null, "SICCode": "80110000", "SICDesc": "OFFICES AND CLINICS OF MEDICAL DOCTORS", "QualityScore": "HIGH"}}, "SMSAddress": null, "MMSAddress": null, "DateFirstSeen": null, "DateOfPorting": "2012-12-11", "NoteCodes": "1,2,3", "NoteDescriptions": "IsMailable,IsConnected,IsPorted", "TokensUsed": "65"}}}, {"PhoneInfoResponse": {"@xmlns": "http://www.serviceobjects.com", "@xmlns:i": "http://www.w3.org/2001/XMLSchema-instance", "PhoneInfo": {"Provider": {"Name": "SOUTHWESTERN BELL", "City": "SAINT LOUIS", "State": "MISSOURI", "Latitude": "38.6522", "Longitude": "-90.3078", "LineType": "LANDLINE"}, "SMSAddress": null, "MMSAddress": null, "DateFirstSeen": null, "DateOfPorting": null, "NoteCodes": "5", "NoteDescriptions": "IsUnknownContact", "TokensUsed": "35"}}}, {"PhoneInfoResponse": {"@xmlns": "http://www.serviceobjects.com", "@xmlns:i": "http://www.w3.org/2001/XMLSchema-instance", "PhoneInfo": {"Provider": {"Name": "CABLEVSN LGHTPATH NY", "City": "NASSAU", "State": "NEW YORK", "Latitude": "42.5179", "Longitude": "-73.6241", "LineType": "LANDLINE"}, "Contacts": {"Contact": {"Name": "MAENZA, SARI DEBRA", "Address": null, "City": null, "State": null, "PostalCode": null, "PhoneType": "UNKNOWN", "Latitude": null, "Longitude": null, "SICCode": null, "SICDesc": null, "QualityScore": "MED"}}, "SMSAddress": null, "MMSAddress": null, "DateFirstSeen": null, "DateOfPorting": "2015-04-23", "NoteCodes": "3", "NoteDescriptions": "IsPorted", "TokensUsed": "35"}}}, {"PhoneInfoResponse": {"@xmlns": "http://www.serviceobjects.com", "@xmlns:i": "http://www.w3.org/2001/XMLSchema-instance", "PhoneInfo": {"Provider": {"Name": "CENTURYLINK", "City": "OXFORD", "State": "NORTH CAROLINA", "Latitude": "36.3086", "Longitude": "-78.5906", "LineType": "LANDLINE"}, "Contacts": {"Contact": {"Name": "CAROLINA N CALL", "Address": null, "City": null, "State": null, "PostalCode": null, "PhoneType": "RESIDENTIAL", "Latitude": null, "Longitude": null, "SICCode": null, "SICDesc": null, "QualityScore": "MED"}}, "SMSAddress": null, "MMSAddress": null, "DateFirstSeen": null, "DateOfPorting": null, "NoteCodes": "2", "NoteDescriptions": "IsConnected", "TokensUsed": "65"}}}, {"PhoneInfoResponse": {"@xmlns": "http://www.serviceobjects.com", "@xmlns:i": "http://www.w3.org/2001/XMLSchema-instance", "PhoneInfo": {"Provider": {"Name": "COMCAST PHONE - CA", "City": "CHULA VISTA", "State": "CALIFORNIA", "Latitude": "32.634", "Longitude": "-117.006", "LineType": "VOIP"}, "Contacts": {"Contact": {"Name": "T CHAC RICK MD OBGYN PHYSICIANS GENERAL", "Address": "750 MEDICAL CENTER CT", "City": "CHULA VISTA", "State": "CA", "PostalCode": "91911-6634", "PhoneType": "BUSINESS", "Latitude": "32.618398", "Longitude": "-117.025013", "SICCode": null, "SICDesc": null, "QualityScore": "HIGH"}}, "SMSAddress": null, "MMSAddress": null, "DateFirstSeen": null, "DateOfPorting": "2019-07-18", "NoteCodes": "1,2,3", "NoteDescriptions": "IsMailable,IsConnected,IsPorted", "TokensUsed": "65"}}}, {"PhoneInfoResponse": {"@xmlns": "http://www.serviceobjects.com", "@xmlns:i": "http://www.w3.org/2001/XMLSchema-instance", "PhoneInfo": {"Provider": {"Name": "ADVANCED TEL - LA", "City": "BATON ROUGE", "State": "LOUISIANA", "Latitude": "30.4451", "Longitude": "-91.1177", "LineType": "LANDLINE"}, "Contacts": {"Contact": {"Name": "WILLIAMSON COSMETIC CENTER PHYSICIANS SURGEONS", "Address": "8150 JEFFERSON HWY STE A", "City": "BATON ROUGE", "State": "LA", "PostalCode": "70809-7715", "PhoneType": "BUSINESS", "Latitude": null, "Longitude": null, "SICCode": null, "SICDesc": null, "QualityScore": "HIGH"}}, "SMSAddress": null, "MMSAddress": null, "DateFirstSeen": null, "DateOfPorting": "2017-01-04", "NoteCodes": "1,2,3", "NoteDescriptions": "IsMailable,IsConnected,IsPorted", "TokensUsed": "65"}}}, {"PhoneInfoResponse": {"@xmlns": "http://www.serviceobjects.com", "@xmlns:i": "http://www.w3.org/2001/XMLSchema-instance", "PhoneInfo": {"Provider": {"Name": "BELLSOUTH SO CNTL", "City": "MINDEN", "State": "LOUISIANA", "Latitude": "32.6166", "Longitude": "-93.2848", "LineType": "LANDLINE"}, "Contacts": {"Contact": {"Name": "JOHNSON GLENDA MD PHYSICIANS SURGEONS", "Address": "431 HOMER RD", "City": "MINDEN", "State": "LA", "PostalCode": "71055-2933", "PhoneType": "BUSINESS", "Latitude": "32.621485", "Longitude": "-93.271551", "SICCode": null, "SICDesc": null, "QualityScore": "HIGH"}}, "SMSAddress": null, "MMSAddress": null, "DateFirstSeen": null, "DateOfPorting": null, "NoteCodes": "1,2", "NoteDescriptions": "IsMailable,IsConnected", "TokensUsed": "65"}}}, {"PhoneInfoResponse": {"@xmlns": "http://www.serviceobjects.com", "@xmlns:i": "http://www.w3.org/2001/XMLSchema-instance", "PhoneInfo": {"Provider": {"Name": "MONMOUTH TEL&TEL NJ", "City": "RED BANK", "State": "NEW JERSEY", "Latitude": "40.3548", "Longitude": "-74.0765", "LineType": "LANDLINE"}, "Contacts": {"Contact": {"Name": "JAFFE FRIEDMAN MD PA PHYSICIANS SURGEONS", "Address": "401 S VAN BRUNT ST STE 405", "City": "ENGLEWOOD", "State": "NJ", "PostalCode": "07631-4600", "PhoneType": "BUSINESS", "Latitude": "40.883346", "Longitude": "-73.985617", "SICCode": "80110000,80310000", "SICDesc": "OFFICES AND CLINICS OF MEDICAL DOCTORS,OFFICES AND CLINICS OF OSTEOPATHIC PHYSICIANS", "QualityScore": "HIGH"}}, "SMSAddress": null, "MMSAddress": null, "DateFirstSeen": null, "DateOfPorting": "2014-04-28", "NoteCodes": "1,2,3", "NoteDescriptions": "IsMailable,IsConnected,IsPorted", "TokensUsed": "65"}}}, {"PhoneInfoResponse": {"@xmlns": "http://www.serviceobjects.com", "@xmlns:i": "http://www.w3.org/2001/XMLSchema-instance", "PhoneInfo": {"Provider": {"Name": "CENTURYLINK", "City": "FORT MYERS", "State": "FLORIDA", "Latitude": "26.5892", "Longitude": "-81.8562", "LineType": "LANDLINE"}, "Contacts": {"Contact": {"Name": "FLORIDA STATE OF AGRICULTURE & CONSUMER SERVICES", "Address": null, "City": "FORT MYERS", "State": "FL", "PostalCode": "33905", "PhoneType": "BUSINESS", "Latitude": null, "Longitude": null, "SICCode": null, "SICDesc": null, "QualityScore": "LOW"}}, "SMSAddress": null, "MMSAddress": null, "DateFirstSeen": null, "DateOfPorting": null, "NoteCodes": null, "NoteDescriptions": null, "TokensUsed": "65"}}}, {"PhoneInfoResponse": {"@xmlns": "http://www.serviceobjects.com", "@xmlns:i": "http://www.w3.org/2001/XMLSchema-instance", "PhoneInfo": {"Provider": {"Name": "TELEPORT COM AM - WI", "City": "BEAVER DAM", "State": "WISCONSIN", "Latitude": "43.4614", "Longitude": "-88.8407", "LineType": "LANDLINE"}, "Contacts": {"Contact": {"Name": "JOSEPH BATTISTA MD PHYSICIANS GENERAL", "Address": "3070 N 51ST ST STE 207", "City": "MILWAUKEE", "State": "WI", "PostalCode": "53210-1661", "PhoneType": "BUSINESS", "Latitude": null, "Longitude": null, "SICCode": null, "SICDesc": null, "QualityScore": "HIGH"}}, "SMSAddress": null, "MMSAddress": null, "DateFirstSeen": null, "DateOfPorting": "2014-05-15", "NoteCodes": "1,2,3", "NoteDescriptions": "IsMailable,IsConnected,IsPorted", "TokensUsed": "65"}}}, {"PhoneInfoResponse": {"@xmlns": "http://www.serviceobjects.com", "@xmlns:i": "http://www.w3.org/2001/XMLSchema-instance", "PhoneInfo": {"Provider": {"Name": "BELLSOUTH SO BELL", "City": "ATLANTA NORTHEAST", "State": "GEORGIA", "Latitude": "33.77113", "Longitude": "-84.36342", "LineType": "LANDLINE"}, "Contacts": {"Contact": {"Name": "GWINNETT MED CT", "Address": "550 MEDICAL CENTER BLVD", "City": "LAWRENCEVILLE", "State": "GA", "PostalCode": "30046-7688", "PhoneType": "BUSINESS", "Latitude": null, "Longitude": null, "SICCode": null, "SICDesc": null, "QualityScore": "LOW"}}, "SMSAddress": null, "MMSAddress": null, "DateFirstSeen": null, "DateOfPorting": null, "NoteCodes": "1", "NoteDescriptions": "IsMailable", "TokensUsed": "65"}}}, {"PhoneInfoResponse": {"@xmlns": "http://www.serviceobjects.com", "@xmlns:i": "http://www.w3.org/2001/XMLSchema-instance", "PhoneInfo": {"Provider": {"Name": "AIRUS, INC. - FL", "City": "WEST PALM BEACH", "State": "FLORIDA", "Latitude": "26.7292", "Longitude": "-80.1295", "LineType": "LANDLINE"}, "Contacts": {"Contact": {"Name": "KENDALL FAMILY MEDICAL CENTER", "Address": "11760 SW 40TH ST", "City": "MIAMI", "State": "FL", "PostalCode": "33175-3582", "PhoneType": "BUSINESS", "Latitude": "25.732026", "Longitude": "-80.385793", "SICCode": null, "SICDesc": null, "QualityScore": "LOW"}}, "SMSAddress": null, "MMSAddress": null, "DateFirstSeen": null, "DateOfPorting": "2019-08-28", "NoteCodes": "1,3", "NoteDescriptions": "IsMailable,IsPorted", "TokensUsed": "65"}}}, {"PhoneInfoResponse": {"@xmlns": "http://www.serviceobjects.com", "@xmlns:i": "http://www.w3.org/2001/XMLSchema-instance", "PhoneInfo": {"Provider": {"Name": "PACIFIC BELL", "City": "SAN FRANCISCO", "State": "CALIFORNIA", "Latitude": "37.7669", "Longitude": "-122.419", "LineType": "LANDLINE"}, "Contacts": {"Contact": {"Name": "SAINT MARYS MEDICAL CENTER GENERAL INFORMATION", "Address": "450 STANYAN ST", "City": "SAN FRANCISCO", "State": "CA", "PostalCode": "94117-1019", "PhoneType": "BUSINESS", "Latitude": "37.774233", "Longitude": "-122.454567", "SICCode": "80620000,80110000,80310000,80430000", "SICDesc": "GENERAL MEDICAL AND SURGICAL HOSPITALS,OFFICES AND CLINICS OF MEDICAL DOCTORS,OFFICES AND CLINICS OF OSTEOPATHIC PHYSICIANS,OFFICES AND CLINICS OF PODIATRISTS", "QualityScore": "HIGH"}}, "SMSAddress": null, "MMSAddress": null, "DateFirstSeen": null, "DateOfPorting": null, "NoteCodes": "1,2", "NoteDescriptions": "IsMailable,IsConnected", "TokensUsed": "65"}}}, {"PhoneInfoResponse": {"@xmlns": "http://www.serviceobjects.com", "@xmlns:i": "http://www.w3.org/2001/XMLSchema-instance", "PhoneInfo": {"Provider": {"Name": "FRONTIER CALIFORNIA", "City": "BISHOP", "State": "CALIFORNIA", "Latitude": "37.3608", "Longitude": "-118.414", "LineType": "LANDLINE"}, "Contacts": {"Contact": {"Name": "NORTHERN INYO H", "Address": "150 PIONEER LN", "City": "BISHOP", "State": "CA", "PostalCode": "93514-2556", "PhoneType": "BUSINESS", "Latitude": "37.361872", "Longitude": "-118.407325", "SICCode": null, "SICDesc": null, "QualityScore": "LOW"}}, "SMSAddress": null, "MMSAddress": null, "DateFirstSeen": null, "DateOfPorting": null, "NoteCodes": "1", "NoteDescriptions": "IsMailable", "TokensUsed": "65"}}}, {"PhoneInfoResponse": {"@xmlns": "http://www.serviceobjects.com", "@xmlns:i": "http://www.w3.org/2001/XMLSchema-instance", "PhoneInfo": {"Provider": {"Name": "FRONTIER CALIFORNIA", "City": "PALM DESERT", "State": "CALIFORNIA", "Latitude": "33.7092", "Longitude": "-116.373", "LineType": "LANDLINE"}, "Contacts": {"Contact": {"Name": "LOUIS PETER ST MD PHYSICIANS SURGEONS", "Address": "39000 BOB HOPE DR STE P212", "City": "RANCHO MIRAGE", "State": "CA", "PostalCode": "92270-7025", "PhoneType": "BUSINESS", "Latitude": "33.763180", "Longitude": "-116.408145", "SICCode": "80110000", "SICDesc": "OFFICES AND CLINICS OF MEDICAL DOCTORS", "QualityScore": "HIGH"}}, "SMSAddress": null, "MMSAddress": null, "DateFirstSeen": null, "DateOfPorting": null, "NoteCodes": "1,2", "NoteDescriptions": "IsMailable,IsConnected", "TokensUsed": "65"}}}, {"PhoneInfoResponse": {"@xmlns": "http://www.serviceobjects.com", "@xmlns:i": "http://www.w3.org/2001/XMLSchema-instance", "PhoneInfo": {"Provider": {"Name": "MAGNA5 LLC", "City": "SEATTLE", "State": "WASHINGTON", "Latitude": "47.5941", "Longitude": "-122.324", "LineType": "LANDLINE"}, "Contacts": {"Contact": {"Name": "UW MED", "Address": null, "City": "SEATTLE", "State": "WA", "PostalCode": "98101", "PhoneType": "BUSINESS", "Latitude": null, "Longitude": null, "SICCode": null, "SICDesc": null, "QualityScore": "LOW"}}, "SMSAddress": null, "MMSAddress": null, "DateFirstSeen": null, "DateOfPorting": "2017-07-06", "NoteCodes": "3", "NoteDescriptions": "IsPorted", "TokensUsed": "65"}}}, {"PhoneInfoResponse": {"@xmlns": "http://www.serviceobjects.com", "@xmlns:i": "http://www.w3.org/2001/XMLSchema-instance", "PhoneInfo": {"Provider": {"Name": "OPTIVON TELECOM - PR", "City": "GUAYNABO", "State": "PUERTO RICO", "Latitude": "18.3864", "Longitude": "-66.1143", "LineType": "LANDLINE"}, "Contacts": {"Contact": {"Name": "C JORGE", "Address": null, "City": "SAN JUAN", "State": "PR", "PostalCode": "00901", "PhoneType": "RESIDENTIAL", "Latitude": null, "Longitude": null, "SICCode": null, "SICDesc": null, "QualityScore": "LOW"}}, "SMSAddress": null, "MMSAddress": null, "DateFirstSeen": null, "DateOfPorting": "2017-10-13", "NoteCodes": "3", "NoteDescriptions": "IsPorted", "TokensUsed": "65"}}}, {"PhoneInfoResponse": {"@xmlns": "http://www.serviceobjects.com", "@xmlns:i": "http://www.w3.org/2001/XMLSchema-instance", "PhoneInfo": {"Provider": {"Name": "ALLEGIANCE TELCOM PA", "City": "PHILADELPHIA", "State": "PENNSYLVANIA", "Latitude": "39.9844", "Longitude": "-75.1534", "LineType": "LANDLINE"}, "Contacts": {"Contact": {"Name": "HOSP UNIV OF PA", "Address": null, "City": "PHILADELPHIA", "State": "PA", "PostalCode": "19153", "PhoneType": "BUSINESS", "Latitude": null, "Longitude": null, "SICCode": "80110000,80310000", "SICDesc": "OFFICES AND CLINICS OF MEDICAL DOCTORS,OFFICES AND CLINICS OF OSTEOPATHIC PHYSICIANS", "QualityScore": "MED"}}, "SMSAddress": null, "MMSAddress": null, "DateFirstSeen": null, "DateOfPorting": "2016-06-16", "NoteCodes": "2,3", "NoteDescriptions": "IsConnected,IsPorted", "TokensUsed": "65"}}}, {"PhoneInfoResponse": {"@xmlns": "http://www.serviceobjects.com", "@xmlns:i": "http://www.w3.org/2001/XMLSchema-instance", "PhoneInfo": {"Provider": {"Name": "CAVALIER MID-ATL PA", "City": "PITTSBURGH", "State": "PENNSYLVANIA", "Latitude": "40.4473", "Longitude": "-79.9934", "LineType": "LANDLINE"}, "Contacts": {"Contact": {"Name": "477047E3VU37800", "Address": null, "City": "PITTSBURGH", "State": "PA", "PostalCode": "15209", "PhoneType": null, "Latitude": null, "Longitude": null, "SICCode": null, "SICDesc": null, "QualityScore": "LOW"}}, "SMSAddress": null, "MMSAddress": null, "DateFirstSeen": null, "DateOfPorting": "2011-03-01", "NoteCodes": "3", "NoteDescriptions": "IsPorted", "TokensUsed": "65"}}}, {"PhoneInfoResponse": {"@xmlns": "http://www.serviceobjects.com", "@xmlns:i": "http://www.w3.org/2001/XMLSchema-instance", "PhoneInfo": {"Provider": {"Name": "VERIZON MARYLAND INC", "City": "BALTIMORE", "State": "MARYLAND", "Latitude": "39.3157", "Longitude": "-76.6278", "LineType": "LANDLINE"}, "Contacts": {"Contact": {"Name": "JOHNS HOPKINS H", "Address": "600 N WOLFE ST", "City": "BALTIMORE", "State": "MD", "PostalCode": "21287-0005", "PhoneType": "BUSINESS", "Latitude": null, "Longitude": null, "SICCode": null, "SICDesc": null, "QualityScore": "LOW"}}, "SMSAddress": null, "MMSAddress": null, "DateFirstSeen": null, "DateOfPorting": null, "NoteCodes": "1", "NoteDescriptions": "IsMailable", "TokensUsed": "65"}}}, {"PhoneInfoResponse": {"@xmlns": "http://www.serviceobjects.com", "@xmlns:i": "http://www.w3.org/2001/XMLSchema-instance", "PhoneInfo": {"Provider": {"Name": "CENTURYLINK", "City": "WARREN", "State": "OHIO", "Latitude": "41.2497", "Longitude": "-80.8209", "LineType": "LANDLINE"}, "SMSAddress": null, "MMSAddress": null, "DateFirstSeen": null, "DateOfPorting": null, "NoteCodes": "5", "NoteDescriptions": "IsUnknownContact", "TokensUsed": "35"}}}, {"PhoneInfoResponse": {"@xmlns": "http://www.serviceobjects.com", "@xmlns:i": "http://www.w3.org/2001/XMLSchema-instance", "PhoneInfo": {"Provider": {"Name": "AT&T, INC. - PR", "City": "SANTURCE", "State": "PUERTO RICO", "Latitude": null, "Longitude": null, "LineType": "LANDLINE"}, "Contacts": {"Contact": {"Name": "LABORATORIO UNIVERSITY PATHOLOGISTS LABORATORIES", "Address": null, "City": "SANTURCE", "State": "PR", "PostalCode": "00911", "PhoneType": "BUSINESS", "Latitude": null, "Longitude": null, "SICCode": null, "SICDesc": null, "QualityScore": "LOW"}}, "SMSAddress": null, "MMSAddress": null, "DateFirstSeen": null, "DateOfPorting": "2005-02-02", "NoteCodes": "3,10,905", "NoteDescriptions": "IsPorted,IsPossibleDisconnected,INF", "TokensUsed": "65"}}}, {"PhoneInfoResponse": {"@xmlns": "http://www.serviceobjects.com", "@xmlns:i": "http://www.w3.org/2001/XMLSchema-instance", "PhoneInfo": {"Provider": {"Name": "US LEC OF VA", "City": "ARCOLA", "State": "VIRGINIA", "Latitude": "38.979", "Longitude": "-77.5233", "LineType": "LANDLINE"}, "Contacts": {"Contact": {"Name": "FAIRFAX PRINCE WM HEMATOLOGY ONCOLOGY CLINICS", "Address": "8503 ARLINGTON BLVD", "City": "FAIRFAX", "State": "VA", "PostalCode": "22031-4628", "PhoneType": "BUSINESS", "Latitude": "38.865460", "Longitude": "-77.238823", "SICCode": null, "SICDesc": null, "QualityScore": "HIGH"}}, "SMSAddress": null, "MMSAddress": null, "DateFirstSeen": null, "DateOfPorting": "2015-02-06", "NoteCodes": "1,2,3", "NoteDescriptions": "IsMailable,IsConnected,IsPorted", "TokensUsed": "65"}}}, {"PhoneInfoResponse": {"@xmlns": "http://www.serviceobjects.com", "@xmlns:i": "http://www.w3.org/2001/XMLSchema-instance", "PhoneInfo": {"Provider": {"Name": "TELEPORT COM LA", "City": "SATICOY", "State": "CALIFORNIA", "Latitude": "34.2803", "Longitude": "-119.164", "LineType": "LANDLINE"}, "Contacts": {"Contact": {"Name": "THE ANGELES CLI", "Address": null, "City": "LOS ANGELES", "State": "CA", "PostalCode": "90025", "PhoneType": "BUSINESS", "Latitude": null, "Longitude": null, "SICCode": null, "SICDesc": null, "QualityScore": "LOW"}}, "SMSAddress": null, "MMSAddress": null, "DateFirstSeen": null, "DateOfPorting": "2019-08-15", "NoteCodes": "3", "NoteDescriptions": "IsPorted", "TokensUsed": "65"}}}, {"PhoneInfoResponse": {"@xmlns": "http://www.serviceobjects.com", "@xmlns:i": "http://www.w3.org/2001/XMLSchema-instance", "PhoneInfo": {"Provider": {"Name": "WEST TELECOM SVC-TX", "City": "IRVING", "State": "TEXAS", "Latitude": "32.8599", "Longitude": "-96.9644", "LineType": "LANDLINE"}, "Contacts": {"Contact": {"Name": "INPATIENT MANAGEMENT TEAM PHYSICIANS SURGEONS", "Address": "500 LAUREL LN", "City": "LEWISVILLE", "State": "TX", "PostalCode": "75067-4504", "PhoneType": "BUSINESS", "Latitude": "33.043071", "Longitude": "-97.008982", "SICCode": null, "SICDesc": null, "QualityScore": "HIGH"}}, "SMSAddress": null, "MMSAddress": null, "DateFirstSeen": null, "DateOfPorting": "2018-12-11", "NoteCodes": "1,2,3", "NoteDescriptions": "IsMailable,IsConnected,IsPorted", "TokensUsed": "65"}}}, {"PhoneInfoResponse": {"@xmlns": "http://www.serviceobjects.com", "@xmlns:i": "http://www.w3.org/2001/XMLSchema-instance", "PhoneInfo": {"Provider": {"Name": "AMERITECH MICHIGAN", "City": "KALAMAZOO", "State": "MICHIGAN", "Latitude": "42.2946", "Longitude": "-85.6033", "LineType": "LANDLINE"}, "Contacts": {"Contact": {"Name": "BORGESS MEDICAL CENTER", "Address": "8001 ANGLING RD", "City": "PORTAGE", "State": "MI", "PostalCode": "49024-7422", "PhoneType": "BUSINESS", "Latitude": null, "Longitude": null, "SICCode": null, "SICDesc": null, "QualityScore": "LOW"}}, "SMSAddress": null, "MMSAddress": null, "DateFirstSeen": null, "DateOfPorting": null, "NoteCodes": "1", "NoteDescriptions": "IsMailable", "TokensUsed": "65"}}}, {"PhoneInfoResponse": {"@xmlns": "http://www.serviceobjects.com", "@xmlns:i": "http://www.w3.org/2001/XMLSchema-instance", "PhoneInfo": {"Provider": {"Name": "QWEST CORPORATION", "City": "PUEBLO", "State": "COLORADO", "Latitude": "38.2736", "Longitude": "-104.607", "LineType": "LANDLINE"}, "Contacts": {"Contact": {"Name": "PARKVIEW MEDICAL CENTER PARKVIEW NEUROSURGICAL", "Address": "1600 N GRAND AVE", "City": "PUEBLO", "State": "CO", "PostalCode": "81003-2700", "PhoneType": "BUSINESS", "Latitude": "38.282002", "Longitude": "-104.611829", "SICCode": "80110000,80310000", "SICDesc": "OFFICES AND CLINICS OF MEDICAL DOCTORS,OFFICES AND CLINICS OF OSTEOPATHIC PHYSICIANS", "QualityScore": "HIGH"}}, "SMSAddress": null, "MMSAddress": null, "DateFirstSeen": null, "DateOfPorting": null, "NoteCodes": "1,2", "NoteDescriptions": "IsMailable,IsConnected", "TokensUsed": "65"}}}, {"PhoneInfoResponse": {"@xmlns": "http://www.serviceobjects.com", "@xmlns:i": "http://www.w3.org/2001/XMLSchema-instance", "PhoneInfo": {"Provider": {"Name": "LIBERTY CABLEVSN-PR", "City": "SAN JUAN", "State": "PUERTO RICO", "Latitude": "18.3974", "Longitude": "-66.0581", "LineType": "LANDLINE"}, "Contacts": {"Contact": {"Name": "P RIO", "Address": null, "City": "SAN JUAN", "State": "PR", "PostalCode": "00901", "PhoneType": "RESIDENTIAL", "Latitude": null, "Longitude": null, "SICCode": null, "SICDesc": null, "QualityScore": "LOW"}}, "SMSAddress": null, "MMSAddress": null, "DateFirstSeen": null, "DateOfPorting": "2016-05-09", "NoteCodes": "3", "NoteDescriptions": "IsPorted", "TokensUsed": "65"}}}, {"PhoneInfoResponse": {"@xmlns": "http://www.serviceobjects.com", "@xmlns:i": "http://www.w3.org/2001/XMLSchema-instance", "PhoneInfo": {"Provider": {"Name": "AMERITECH MICHIGAN", "City": "PLYMOUTH", "State": "MICHIGAN", "Latitude": "42.3708", "Longitude": "-83.5195", "LineType": "LANDLINE"}, "Contacts": {"Contact": {"Name": "GEPPERT PAMELA M DO PLLC PHYSICIANS SURGEONS", "Address": "9333 N HAGGERTY RD", "City": "PLYMOUTH", "State": "MI", "PostalCode": "48170-4622", "PhoneType": "BUSINESS", "Latitude": null, "Longitude": null, "SICCode": "80110000,80310000", "SICDesc": "OFFICES AND CLINICS OF MEDICAL DOCTORS,OFFICES AND CLINICS OF OSTEOPATHIC PHYSICIANS", "QualityScore": "HIGH"}}, "SMSAddress": null, "MMSAddress": null, "DateFirstSeen": null, "DateOfPorting": null, "NoteCodes": "1,2", "NoteDescriptions": "IsMailable,IsConnected", "TokensUsed": "65"}}}, {"PhoneInfoResponse": {"@xmlns": "http://www.serviceobjects.com", "@xmlns:i": "http://www.w3.org/2001/XMLSchema-instance", "PhoneInfo": {"Provider": {"Name": "VERIZON NORTH-PA", "City": "JOHNSTOWN", "State": "PENNSYLVANIA", "Latitude": "40.3252", "Longitude": "-78.8976", "LineType": "LANDLINE"}, "Contacts": {"Contact": {"Name": "HARRY H POTE", "Address": "1 TECH PARK DR", "City": "JOHNSTOWN", "State": "PA", "PostalCode": "15901-2515", "PhoneType": "RESIDENTIAL", "Latitude": null, "Longitude": null, "SICCode": null, "SICDesc": null, "QualityScore": "LOW"}}, "SMSAddress": null, "MMSAddress": null, "DateFirstSeen": null, "DateOfPorting": "2012-02-26", "NoteCodes": "1,3", "NoteDescriptions": "IsMailable,IsPorted", "TokensUsed": "65"}}}, {"PhoneInfoResponse": {"@xmlns": "http://www.serviceobjects.com", "@xmlns:i": "http://www.w3.org/2001/XMLSchema-instance", "PhoneInfo": {"Provider": {"Name": "PACIFIC BELL", "City": "BEVERLY HILLS", "State": "CALIFORNIA", "Latitude": "34.0702", "Longitude": "-118.398", "LineType": "LANDLINE"}, "Contacts": {"Contact": {"Name": "US GOVERNMENT", "Address": null, "City": "LOS ANGELES", "State": "CA", "PostalCode": "90025", "PhoneType": "BUSINESS", "Latitude": null, "Longitude": null, "SICCode": null, "SICDesc": null, "QualityScore": "LOW"}}, "SMSAddress": null, "MMSAddress": null, "DateFirstSeen": null, "DateOfPorting": "2002-04-27", "NoteCodes": "3", "NoteDescriptions": "IsPorted", "TokensUsed": "65"}}}, {"PhoneInfoResponse": {"@xmlns": "http://www.serviceobjects.com", "@xmlns:i": "http://www.w3.org/2001/XMLSchema-instance", "PhoneInfo": {"Provider": {"Name": "MCI WORLDCOM COMM MO", "City": "SAINT LOUIS", "State": "MISSOURI", "Latitude": "38.6522", "Longitude": "-90.3078", "LineType": "LANDLINE"}, "Contacts": {"Contact": {"Name": "MERCY CLINIC NEUROLOGYROLLA PHYSICIANS SURGEONS", "Address": "1605 MARTIN SPRINGS DR STE 360B", "City": "ROLLA", "State": "MO", "PostalCode": "65401-2980", "PhoneType": "BUSINESS", "Latitude": null, "Longitude": null, "SICCode": "80110000,80310000", "SICDesc": "OFFICES AND CLINICS OF MEDICAL DOCTORS,OFFICES AND CLINICS OF OSTEOPATHIC PHYSICIANS", "QualityScore": "HIGH"}}, "SMSAddress": null, "MMSAddress": null, "DateFirstSeen": null, "DateOfPorting": "2017-11-22", "NoteCodes": "1,2,3", "NoteDescriptions": "IsMailable,IsConnected,IsPorted", "TokensUsed": "65"}}}, {"PhoneInfoResponse": {"@xmlns": "http://www.serviceobjects.com", "@xmlns:i": "http://www.w3.org/2001/XMLSchema-instance", "PhoneInfo": {"Provider": {"Name": "CTSI, INC. - PA", "City": "ALLENTOWN", "State": "PENNSYLVANIA", "Latitude": "40.591", "Longitude": "-75.5036", "LineType": "LANDLINE"}, "Contacts": {"Contact": {"Name": "LEHIGH VLLY", "Address": "1200 S CEDAR CREST BLVD", "City": "ALLENTOWN", "State": "PA", "PostalCode": "18103-6202", "PhoneType": "BUSINESS", "Latitude": "40.567594", "Longitude": "-75.518751", "SICCode": null, "SICDesc": null, "QualityScore": "LOW"}}, "SMSAddress": null, "MMSAddress": null, "DateFirstSeen": null, "DateOfPorting": "2008-01-31", "NoteCodes": "1,3", "NoteDescriptions": "IsMailable,IsPorted", "TokensUsed": "65"}}}, {"PhoneInfoResponse": {"@xmlns": "http://www.serviceobjects.com", "@xmlns:i": "http://www.w3.org/2001/XMLSchema-instance", "PhoneInfo": {"Provider": {"Name": "AMERITECH WISCONSIN", "City": "MILWAUKEE", "State": "WISCONSIN", "Latitude": "43.0461", "Longitude": "-87.9558", "LineType": "LANDLINE"}, "Contacts": {"Contact": {"Name": "GLENDALE PEDIATRICS CHILDREN S MEDICAL GROUP", "Address": "2500 W SILVER SPRING DR", "City": "MILWAUKEE", "State": "WI", "PostalCode": "53209-4218", "PhoneType": "BUSINESS", "Latitude": "43.119210", "Longitude": "-87.944561", "SICCode": null, "SICDesc": null, "QualityScore": "LOW"}}, "SMSAddress": null, "MMSAddress": null, "DateFirstSeen": null, "DateOfPorting": null, "NoteCodes": "1,10,905", "NoteDescriptions": "IsMailable,IsPossibleDisconnected,INF", "TokensUsed": "65"}}}, {"PhoneInfoResponse": {"@xmlns": "http://www.serviceobjects.com", "@xmlns:i": "http://www.w3.org/2001/XMLSchema-instance", "PhoneInfo": {"Provider": {"Name": "TIME WARNER CABLE ME", "City": "PORTLAND", "State": "MAINE", "Latitude": "43.6664", "Longitude": "-70.2621", "LineType": "LANDLINE"}, "Contacts": {"Contact": {"Name": "ST APOLLONIA DENTAL CLINIC DENTISTS", "Address": "122 ACADEMY ST", "City": "PRESQUE ISLE", "State": "ME", "PostalCode": "04769-3005", "PhoneType": "BUSINESS", "Latitude": "46.677218", "Longitude": "-68.001886", "SICCode": "80210000", "SICDesc": "OFFICES AND CLINICS OF DENTISTS", "QualityScore": "HIGH"}}, "SMSAddress": null, "MMSAddress": null, "DateFirstSeen": null, "DateOfPorting": "2019-07-02", "NoteCodes": "1,2,3", "NoteDescriptions": "IsMailable,IsConnected,IsPorted", "TokensUsed": "65"}}}, {"PhoneInfoResponse": {"@xmlns": "http://www.serviceobjects.com", "@xmlns:i": "http://www.w3.org/2001/XMLSchema-instance", "PhoneInfo": {"Provider": {"Name": "MID-PLAINS TEL INC", "City": "MIDDLETON", "State": "WISCONSIN", "Latitude": "43.1153", "Longitude": "-89.5249", "LineType": "LANDLINE"}, "Contacts": {"Contact": {"Name": "THE VILLA AT MIDDLETON VILLAGE NURSING HOMES LIFE", "Address": "6201 ELMWOOD AVE", "City": "MIDDLETON", "State": "WI", "PostalCode": "53562-3319", "PhoneType": "BUSINESS", "Latitude": null, "Longitude": null, "SICCode": "83610000", "SICDesc": "RESIDENTIAL CARE", "QualityScore": "HIGH"}}, "SMSAddress": null, "MMSAddress": null, "DateFirstSeen": null, "DateOfPorting": null, "NoteCodes": "1,2", "NoteDescriptions": "IsMailable,IsConnected", "TokensUsed": "65"}}}, {"PhoneInfoResponse": {"@xmlns": "http://www.serviceobjects.com", "@xmlns:i": "http://www.w3.org/2001/XMLSchema-instance", "PhoneInfo": {"Provider": {"Name": "TELEPORT COMM AM-IL", "City": "ELWOOD", "State": "ILLINOIS", "Latitude": "41.424", "Longitude": "-88.0843", "LineType": "LANDLINE"}, "Contacts": {"Contact": {"Name": "NORTHWESTERN MEDICAL FACULTY FOUNDATION", "Address": null, "City": "CHICAGO", "State": "IL", "PostalCode": "60654", "PhoneType": "BUSINESS", "Latitude": null, "Longitude": null, "SICCode": "80310000", "SICDesc": "OFFICES AND CLINICS OF OSTEOPATHIC PHYSICIANS", "QualityScore": "MED"}}, "SMSAddress": null, "MMSAddress": null, "DateFirstSeen": null, "DateOfPorting": "2017-05-11", "NoteCodes": "2,3", "NoteDescriptions": "IsConnected,IsPorted", "TokensUsed": "65"}}}, {"PhoneInfoResponse": {"@xmlns": "http://www.serviceobjects.com", "@xmlns:i": "http://www.w3.org/2001/XMLSchema-instance", "PhoneInfo": {"Provider": {"Name": "ALLEGIANCE TELCOM PA", "City": "PHILADELPHIA", "State": "PENNSYLVANIA", "Latitude": "39.9844", "Longitude": "-75.1534", "LineType": "LANDLINE"}, "Contacts": {"Contact": {"Name": "PENN PRESBYTERIAN PHYSICIANS SURGEONS RHEUMATOLOGY", "Address": "3737 MARKET ST", "City": "PHILADELPHIA", "State": "PA", "PostalCode": "19104-5545", "PhoneType": "BUSINESS", "Latitude": null, "Longitude": null, "SICCode": "80110000,80310000", "SICDesc": "OFFICES AND CLINICS OF MEDICAL DOCTORS,OFFICES AND CLINICS OF OSTEOPATHIC PHYSICIANS", "QualityScore": "HIGH"}}, "SMSAddress": null, "MMSAddress": null, "DateFirstSeen": null, "DateOfPorting": "2016-06-16", "NoteCodes": "1,2,3", "NoteDescriptions": "IsMailable,IsConnected,IsPorted", "TokensUsed": "65"}}}, {"PhoneInfoResponse": {"@xmlns": "http://www.serviceobjects.com", "@xmlns:i": "http://www.w3.org/2001/XMLSchema-instance", "PhoneInfo": {"Provider": {"Name": "VERIZON NEW JERSEY", "City": "TRENTON", "State": "NEW JERSEY", "Latitude": "40.2101", "Longitude": "-74.7136", "LineType": "LANDLINE"}, "SMSAddress": null, "MMSAddress": null, "DateFirstSeen": null, "DateOfPorting": null, "NoteCodes": "5", "NoteDescriptions": "IsUnknownContact", "TokensUsed": "35"}}}, {"PhoneInfoResponse": {"@xmlns": "http://www.serviceobjects.com", "@xmlns:i": "http://www.w3.org/2001/XMLSchema-instance", "PhoneInfo": {"Provider": {"Name": "AT&T, INC. - PR", "City": "CAGUAS", "State": "PUERTO RICO", "Latitude": "18.2343", "Longitude": "-66.0394", "LineType": "LANDLINE"}, "Contacts": {"Contact": {"Name": "MICHELLE MORINGLANE", "Address": null, "City": "CAGUAS", "State": "PR", "PostalCode": "00725", "PhoneType": "RESIDENTIAL", "Latitude": null, "Longitude": null, "SICCode": null, "SICDesc": null, "QualityScore": "LOW"}}, "SMSAddress": null, "MMSAddress": null, "DateFirstSeen": null, "DateOfPorting": "2017-06-14", "NoteCodes": "3", "NoteDescriptions": "IsPorted", "TokensUsed": "65"}}}, {"PhoneInfoResponse": {"@xmlns": "http://www.serviceobjects.com", "@xmlns:i": "http://www.w3.org/2001/XMLSchema-instance", "PhoneInfo": {"Provider": {"Name": "COMCAST PHONE - DE", "City": "WILMINGTON", "State": "DELAWARE", "Latitude": "39.7536", "Longitude": "-75.5604", "LineType": "VOIP"}, "Contacts": {"Contact": {"Name": "BIKASH MD BOSE C PHYSICIANS GENERAL", "Address": "79 OMEGA DR", "City": "NEWARK", "State": "DE", "PostalCode": "19713-2064", "PhoneType": "BUSINESS", "Latitude": null, "Longitude": null, "SICCode": null, "SICDesc": null, "QualityScore": "HIGH"}}, "SMSAddress": null, "MMSAddress": null, "DateFirstSeen": null, "DateOfPorting": "2015-12-08", "NoteCodes": "1,2,3", "NoteDescriptions": "IsMailable,IsConnected,IsPorted", "TokensUsed": "65"}}}, {"PhoneInfoResponse": {"@xmlns": "http://www.serviceobjects.com", "@xmlns:i": "http://www.w3.org/2001/XMLSchema-instance", "PhoneInfo": {"Provider": {"Name": "LIGHTBOUND - IN", "City": "INDIANAPOLIS", "State": "INDIANA", "Latitude": "39.7944", "Longitude": "-86.157", "LineType": "LANDLINE"}, "Contacts": {"Contact": {"Name": "MARTHA A MICHEL", "Address": null, "City": null, "State": null, "PostalCode": null, "PhoneType": "UNKNOWN", "Latitude": null, "Longitude": null, "SICCode": null, "SICDesc": null, "QualityScore": "MED"}}, "SMSAddress": null, "MMSAddress": null, "DateFirstSeen": null, "DateOfPorting": null, "NoteCodes": null, "NoteDescriptions": null, "TokensUsed": "35"}}}, {"PhoneInfoResponse": {"@xmlns": "http://www.serviceobjects.com", "@xmlns:i": "http://www.w3.org/2001/XMLSchema-instance", "PhoneInfo": {"Provider": {"Name": "CORECOMM - OH", "City": "MAPLE HEIGHTS", "State": "OHIO", "Latitude": "41.4121", "Longitude": "-81.5566", "LineType": "LANDLINE"}, "Contacts": {"Contact": {"Name": "ANITA CHERIYAN", "Address": "25200 CENTER RIDGE RD", "City": "WESTLAKE", "State": "OH", "PostalCode": "44145-4141", "PhoneType": "RESIDENTIAL", "Latitude": null, "Longitude": null, "SICCode": "80110000", "SICDesc": "OFFICES AND CLINICS OF MEDICAL DOCTORS", "QualityScore": "HIGH"}}, "SMSAddress": null, "MMSAddress": null, "DateFirstSeen": null, "DateOfPorting": "2013-05-15", "NoteCodes": "1,2,3", "NoteDescriptions": "IsMailable,IsConnected,IsPorted", "TokensUsed": "65"}}}, {"PhoneInfoResponse": {"@xmlns": "http://www.serviceobjects.com", "@xmlns:i": "http://www.w3.org/2001/XMLSchema-instance", "PhoneInfo": {"Provider": {"Name": "WINDSTREAM SC, INC.", "City": "LANDRUM", "State": "SOUTH CAROLINA", "Latitude": "35.1705", "Longitude": "-82.1823", "LineType": "LANDLINE"}, "Contacts": {"Contact": {"Name": "MARY K DURAN MD PHYSICIANS SURGEONS", "Address": "133 N HOWARD AVE", "City": "LANDRUM", "State": "SC", "PostalCode": "29356-1507", "PhoneType": "BUSINESS", "Latitude": "35.175834", "Longitude": "-82.190363", "SICCode": "80110000", "SICDesc": "OFFICES AND CLINICS OF MEDICAL DOCTORS", "QualityScore": "HIGH"}}, "SMSAddress": null, "MMSAddress": null, "DateFirstSeen": null, "DateOfPorting": null, "NoteCodes": "1,2", "NoteDescriptions": "IsMailable,IsConnected", "TokensUsed": "65"}}}, {"PhoneInfoResponse": {"@xmlns": "http://www.serviceobjects.com", "@xmlns:i": "http://www.w3.org/2001/XMLSchema-instance", "PhoneInfo": {"Provider": {"Name": "TELEPORT COM AM - WI", "City": "BEAVER DAM", "State": "WISCONSIN", "Latitude": "43.4614", "Longitude": "-88.8407", "LineType": "LANDLINE"}, "Contacts": {"Contact": {"Name": "WHEATON FRANCISCAN BEHAVIORAL HEALTH INFORMATION", "Address": null, "City": "MILWAUKEE", "State": "WI", "PostalCode": "53216", "PhoneType": "BUSINESS", "Latitude": null, "Longitude": null, "SICCode": null, "SICDesc": null, "QualityScore": "LOW"}}, "SMSAddress": null, "MMSAddress": null, "DateFirstSeen": null, "DateOfPorting": "2014-05-15", "NoteCodes": "3", "NoteDescriptions": "IsPorted", "TokensUsed": "65"}}}, {"PhoneInfoResponse": {"@xmlns": "http://www.serviceobjects.com", "@xmlns:i": "http://www.w3.org/2001/XMLSchema-instance", "PhoneInfo": {"Provider": {"Name": "STARPOWER COMM DC", "City": "WASHINGTON", "State": "DISTRICT OF COLUMBIA", "Latitude": "38.8976", "Longitude": "-77.028", "LineType": "LANDLINE"}, "Contacts": {"Contact": {"Name": "HOWARD UNIV", "Address": "2400 6TH ST NW", "City": "WASHINGTON", "State": "DC", "PostalCode": "20059-0001", "PhoneType": "BUSINESS", "Latitude": "38.923980", "Longitude": "-77.019646", "SICCode": null, "SICDesc": null, "QualityScore": "LOW"}}, "SMSAddress": null, "MMSAddress": null, "DateFirstSeen": null, "DateOfPorting": "2018-06-15", "NoteCodes": "1,3", "NoteDescriptions": "IsMailable,IsPorted", "TokensUsed": "65"}}}, {"PhoneInfoResponse": {"@xmlns": "http://www.serviceobjects.com", "@xmlns:i": "http://www.w3.org/2001/XMLSchema-instance", "PhoneInfo": {"Provider": {"Name": "WINDSTREAM WESTN RES", "City": "NORTHFIELD", "State": "OHIO", "Latitude": "41.3124", "Longitude": "-81.5422", "LineType": "LANDLINE"}, "Contacts": {"Contact": {"Name": "4 M EMERGENCY SYSTEMS EMERGENCY MEDICAL SURGICAL", "Address": "5700 DARROW RD STE 106", "City": "HUDSON", "State": "OH", "PostalCode": "44236-5026", "PhoneType": "BUSINESS", "Latitude": null, "Longitude": null, "SICCode": "80990000", "SICDesc": "HEALTH AND ALLIED SERVICES, NEC", "QualityScore": "HIGH"}}, "SMSAddress": null, "MMSAddress": null, "DateFirstSeen": null, "DateOfPorting": "2012-01-25", "NoteCodes": "1,2,3", "NoteDescriptions": "IsMailable,IsConnected,IsPorted", "TokensUsed": "65"}}}, {"PhoneInfoResponse": {"@xmlns": "http://www.serviceobjects.com", "@xmlns:i": "http://www.w3.org/2001/XMLSchema-instance", "PhoneInfo": {"Provider": {"Name": "CINCINNATI BELL EXT", "City": "DAYTON", "State": "OHIO", "Latitude": "39.7339", "Longitude": "-84.1691", "LineType": "LANDLINE"}, "Contacts": {"Contact": {"Name": "SAS SURGERY VEIN SPECIALISTS PHYSICIANS SURGEONS", "Address": "30 WARDER ST STE 220", "City": "SPRINGFIELD", "State": "OH", "PostalCode": "45504-2581", "PhoneType": "BUSINESS", "Latitude": "39.929533", "Longitude": "-83.808717", "SICCode": "80110000", "SICDesc": "OFFICES AND CLINICS OF MEDICAL DOCTORS", "QualityScore": "HIGH"}}, "SMSAddress": null, "MMSAddress": null, "DateFirstSeen": null, "DateOfPorting": "2011-03-25", "NoteCodes": "1,2,3", "NoteDescriptions": "IsMailable,IsConnected,IsPorted", "TokensUsed": "65"}}}, {"PhoneInfoResponse": {"@xmlns": "http://www.serviceobjects.com", "@xmlns:i": "http://www.w3.org/2001/XMLSchema-instance", "PhoneInfo": {"Provider": {"Name": "VERIZON NEW ENGLAND", "City": "HAMILTON", "State": "MASSACHUSETTS", "Latitude": "42.6374", "Longitude": "-70.8558", "LineType": "LANDLINE"}, "Contacts": {"Contact": {"Name": "SMITH BRUCE W MD", "Address": "40 ASBURY ST", "City": "SOUTH HAMILTON", "State": "MA", "PostalCode": "01982-1808", "PhoneType": "BUSINESS", "Latitude": "42.613847", "Longitude": "-70.873160", "SICCode": null, "SICDesc": null, "QualityScore": "HIGH"}}, "SMSAddress": null, "MMSAddress": null, "DateFirstSeen": null, "DateOfPorting": null, "NoteCodes": "1,2", "NoteDescriptions": "IsMailable,IsConnected", "TokensUsed": "65"}}}, {"PhoneInfoResponse": {"@xmlns": "http://www.serviceobjects.com", "@xmlns:i": "http://www.w3.org/2001/XMLSchema-instance", "PhoneInfo": {"Provider": {"Name": "FRONTIER COMM OF TX", "City": "DICKINSON", "State": "TEXAS", "Latitude": "29.469", "Longitude": "-95.0144", "LineType": "LANDLINE"}, "Contacts": {"Contact": {"Name": "V UTMB", "Address": null, "City": "DICKINSON", "State": "TX", "PostalCode": "77539", "PhoneType": "RESIDENTIAL", "Latitude": null, "Longitude": null, "SICCode": null, "SICDesc": null, "QualityScore": "MED"}}, "SMSAddress": null, "MMSAddress": null, "DateFirstSeen": null, "DateOfPorting": null, "NoteCodes": "2", "NoteDescriptions": "IsConnected", "TokensUsed": "65"}}}, {"PhoneInfoResponse": {"@xmlns": "http://www.serviceobjects.com", "@xmlns:i": "http://www.w3.org/2001/XMLSchema-instance", "PhoneInfo": {"Provider": {"Name": "VERIZON NEW YORK INC", "City": "BROOKLYN", "State": "NEW YORK", "Latitude": "40.6657", "Longitude": "-73.9695", "LineType": "LANDLINE"}, "Contacts": {"Contact": {"Name": "BETH ISRAEL MEDICAL CTR", "Address": null, "City": null, "State": null, "PostalCode": null, "PhoneType": "UNKNOWN", "Latitude": null, "Longitude": null, "SICCode": null, "SICDesc": null, "QualityScore": "MED"}}, "SMSAddress": null, "MMSAddress": null, "DateFirstSeen": null, "DateOfPorting": null, "NoteCodes": null, "NoteDescriptions": null, "TokensUsed": "35"}}}, {"PhoneInfoResponse": {"@xmlns": "http://www.serviceobjects.com", "@xmlns:i": "http://www.w3.org/2001/XMLSchema-instance", "PhoneInfo": {"Provider": {"Name": "ONVOY, LLC - AZ", "City": "GILBERT", "State": "ARIZONA", "Latitude": "33.3347", "Longitude": "-111.76", "LineType": "LANDLINE"}, "Contacts": {"Contact": {"Name": "THUMB BUTTE MEDICAL CENTER", "Address": "3191 STILLWATER DR STE B", "City": "PRESCOTT", "State": "AZ", "PostalCode": "86305-7145", "PhoneType": "BUSINESS", "Latitude": null, "Longitude": null, "SICCode": "80490000,80110000", "SICDesc": "OFFICES OF HEALTH PRACTITIONER,OFFICES AND CLINICS OF MEDICAL DOCTORS", "QualityScore": "LOW"}}, "SMSAddress": null, "MMSAddress": null, "DateFirstSeen": null, "DateOfPorting": "2018-09-03", "NoteCodes": "1,3,10,905", "NoteDescriptions": "IsMailable,IsPorted,IsPossibleDisconnected,INF", "TokensUsed": "65"}}}, {"PhoneInfoResponse": {"@xmlns": "http://www.serviceobjects.com", "@xmlns:i": "http://www.w3.org/2001/XMLSchema-instance", "PhoneInfo": {"Provider": {"Name": "VERIZON PENNSYLVANIA", "City": "READING", "State": "PENNSYLVANIA", "Latitude": "40.3379", "Longitude": "-75.9354", "LineType": "LANDLINE"}, "Contacts": {"Contact": {"Name": "READING HOSPITAL AND MEDICAL CENTER", "Address": "16052 PO BOX", "City": "READING", "State": "PA", "PostalCode": "19612-6052", "PhoneType": "BUSINESS", "Latitude": null, "Longitude": null, "SICCode": null, "SICDesc": null, "QualityScore": "LOW"}}, "SMSAddress": null, "MMSAddress": null, "DateFirstSeen": null, "DateOfPorting": null, "NoteCodes": "1", "NoteDescriptions": "IsMailable", "TokensUsed": "65"}}}, {"PhoneInfoResponse": {"@xmlns": "http://www.serviceobjects.com", "@xmlns:i": "http://www.w3.org/2001/XMLSchema-instance", "PhoneInfo": {"Provider": {"Name": "FRONTIER CALIFORNIA", "City": "SAN FERNANDO", "State": "CALIFORNIA", "Latitude": "34.2841", "Longitude": "-118.438", "LineType": "LANDLINE"}, "Contacts": {"Contact": {"Name": "CRISTOJOHN SAMUEL DR", "Address": "418 SAN FERNANDO MISSION BLVD", "City": "SAN FERNANDO", "State": "CA", "PostalCode": "91340-3530", "PhoneType": "BUSINESS", "Latitude": "34.282917", "Longitude": "-118.444502", "SICCode": null, "SICDesc": null, "QualityScore": "HIGH"}}, "SMSAddress": null, "MMSAddress": null, "DateFirstSeen": null, "DateOfPorting": null, "NoteCodes": "1,2", "NoteDescriptions": "IsMailable,IsConnected", "TokensUsed": "65"}}}, {"PhoneInfoResponse": {"@xmlns": "http://www.serviceobjects.com", "@xmlns:i": "http://www.w3.org/2001/XMLSchema-instance", "PhoneInfo": {"Provider": {"Name": "TELEPORT COMM AM-IL", "City": "ELWOOD", "State": "ILLINOIS", "Latitude": "41.424", "Longitude": "-88.0843", "LineType": "LANDLINE"}, "Contacts": {"Contact": {"Name": "NW MEMORIAL HOSPITAL", "Address": null, "City": "CHICAGO", "State": "IL", "PostalCode": "60654", "PhoneType": "BUSINESS", "Latitude": null, "Longitude": null, "SICCode": null, "SICDesc": null, "QualityScore": "MED"}}, "SMSAddress": null, "MMSAddress": null, "DateFirstSeen": null, "DateOfPorting": "2019-04-26", "NoteCodes": "2,3", "NoteDescriptions": "IsConnected,IsPorted", "TokensUsed": "65"}}}, {"PhoneInfoResponse": {"@xmlns": "http://www.serviceobjects.com", "@xmlns:i": "http://www.w3.org/2001/XMLSchema-instance", "PhoneInfo": {"Provider": {"Name": "FRONTIER CALIFORNIA", "City": "WEST LOS ANGELES", "State": "CALIFORNIA", "Latitude": "34.0435", "Longitude": "-118.45", "LineType": "LANDLINE"}, "Contacts": {"Contact": {"Name": "CENTER FOR OPTIMUM HEALTH PHYSICIANS SURGEONS", "Address": "11860 WILSHIRE BLVD STE 200", "City": "LOS ANGELES", "State": "CA", "PostalCode": "90025-6626", "PhoneType": "BUSINESS", "Latitude": "34.047109", "Longitude": "-118.463813", "SICCode": "80110000,27520603,51120302", "SICDesc": "OFFICES AND CLINICS OF MEDICAL DOCTORS,TRANSFERS, DECALCOMANIA OR DRY: LITHOGRAPHED,LOOSELEAF BINDERS", "QualityScore": "HIGH"}}, "SMSAddress": null, "MMSAddress": null, "DateFirstSeen": null, "DateOfPorting": null, "NoteCodes": "1,2", "NoteDescriptions": "IsMailable,IsConnected", "TokensUsed": "65"}}}, {"PhoneInfoResponse": {"@xmlns": "http://www.serviceobjects.com", "@xmlns:i": "http://www.w3.org/2001/XMLSchema-instance", "PhoneInfo": {"Provider": {"Name": "NORTHLAND NETWORKS", "City": "SYRACUSE", "State": "NEW YORK", "Latitude": "43.0587", "Longitude": "-76.1504", "LineType": "LANDLINE"}, "Contacts": {"Contact": {"Name": "SPRINGER SHARON PHYSICIANS SURGEONS", "Address": "127 SEELEY RD", "City": "SYRACUSE", "State": "NY", "PostalCode": "13224-1113", "PhoneType": "BUSINESS", "Latitude": "43.052898", "Longitude": "-76.104039", "SICCode": "80110000", "SICDesc": "OFFICES AND CLINICS OF MEDICAL DOCTORS", "QualityScore": "HIGH"}}, "SMSAddress": null, "MMSAddress": null, "DateFirstSeen": null, "DateOfPorting": "2014-09-05", "NoteCodes": "1,2,3", "NoteDescriptions": "IsMailable,IsConnected,IsPorted", "TokensUsed": "65"}}}, {"PhoneInfoResponse": {"@xmlns": "http://www.serviceobjects.com", "@xmlns:i": "http://www.w3.org/2001/XMLSchema-instance", "PhoneInfo": {"Provider": {"Name": "VERIZON NEW JERSEY", "City": "HACKENSACK", "State": "NEW JERSEY", "Latitude": "40.8881", "Longitude": "-74.0486", "LineType": "LANDLINE"}, "Contacts": {"Contact": {"Name": "JEROME F LEVINE MD PHYSICIANS SURGEONS", "Address": "20 PROSPECT AVE", "City": "HACKENSACK", "State": "NJ", "PostalCode": "07601-1997", "PhoneType": "BUSINESS", "Latitude": "40.884271", "Longitude": "-74.057816", "SICCode": "80110000,80310000", "SICDesc": "OFFICES AND CLINICS OF MEDICAL DOCTORS,OFFICES AND CLINICS OF OSTEOPATHIC PHYSICIANS", "QualityScore": "HIGH"}}, "SMSAddress": null, "MMSAddress": null, "DateFirstSeen": null, "DateOfPorting": null, "NoteCodes": "1,2", "NoteDescriptions": "IsMailable,IsConnected", "TokensUsed": "65"}}}, {"PhoneInfoResponse": {"@xmlns": "http://www.serviceobjects.com", "@xmlns:i": "http://www.w3.org/2001/XMLSchema-instance", "PhoneInfo": {"Provider": {"Name": "MCI WORLDCOM COMM CA", "City": "ANAHEIM", "State": "CALIFORNIA", "Latitude": "33.837", "Longitude": "-117.89", "LineType": "LANDLINE"}, "Contacts": {"Contact": {"Name": "OPHTHALMOLOGY ASSOCIATES OF THE VALLEY PHYSICIANS", "Address": "16311 VENTURA BLVD STE 845", "City": "ENCINO", "State": "CA", "PostalCode": "91436-4330", "PhoneType": "BUSINESS", "Latitude": "34.156954", "Longitude": "-118.489272", "SICCode": "80110000,80420101", "SICDesc": "OFFICES AND CLINICS OF MEDICAL DOCTORS,CONTACT LENSE SPECIALIST OPTOMETRIST", "QualityScore": "HIGH"}}, "SMSAddress": null, "MMSAddress": null, "DateFirstSeen": null, "DateOfPorting": "2018-03-15", "NoteCodes": "1,2,3", "NoteDescriptions": "IsMailable,IsConnected,IsPorted", "TokensUsed": "65"}}}, {"PhoneInfoResponse": {"@xmlns": "http://www.serviceobjects.com", "@xmlns:i": "http://www.w3.org/2001/XMLSchema-instance", "PhoneInfo": {"Provider": {"Name": "PACIFIC BELL", "City": "NEWPORT BEACH", "State": "CALIFORNIA", "Latitude": "33.6202", "Longitude": "-117.897", "LineType": "LANDLINE"}, "Contacts": {"Contact": {"Name": "ESTHETICA OF NEWPORT BEACH", "Address": "360 SAN MIGUEL DR STE 207", "City": "NEWPORT BEACH", "State": "CA", "PostalCode": "92660-7820", "PhoneType": "BUSINESS", "Latitude": null, "Longitude": null, "SICCode": "80110000", "SICDesc": "OFFICES AND CLINICS OF MEDICAL DOCTORS", "QualityScore": "HIGH"}}, "SMSAddress": null, "MMSAddress": null, "DateFirstSeen": null, "DateOfPorting": null, "NoteCodes": "1,2", "NoteDescriptions": "IsMailable,IsConnected", "TokensUsed": "65"}}}, {"PhoneInfoResponse": {"@xmlns": "http://www.serviceobjects.com", "@xmlns:i": "http://www.w3.org/2001/XMLSchema-instance", "PhoneInfo": {"Provider": {"Name": "FRONTIER CALIFORNIA", "City": "PALM DESERT", "State": "CALIFORNIA", "Latitude": "33.7092", "Longitude": "-116.373", "LineType": "LANDLINE"}, "Contacts": {"Contact": {"Name": "ANDREW J HAYDURE MD PHYSICIANS SURGEONS SURGERY", "Address": "39000 BOB HOPE DR STE K206", "City": "RANCHO MIRAGE", "State": "CA", "PostalCode": "92270-7002", "PhoneType": "BUSINESS", "Latitude": "33.763180", "Longitude": "-116.408145", "SICCode": null, "SICDesc": null, "QualityScore": "HIGH"}}, "SMSAddress": null, "MMSAddress": null, "DateFirstSeen": null, "DateOfPorting": null, "NoteCodes": "1,2", "NoteDescriptions": "IsMailable,IsConnected", "TokensUsed": "65"}}}, {"PhoneInfoResponse": {"@xmlns": "http://www.serviceobjects.com", "@xmlns:i": "http://www.w3.org/2001/XMLSchema-instance", "PhoneInfo": {"Provider": {"Name": "AMERITECH WISCONSIN", "City": "STURTEVANT", "State": "WISCONSIN", "Latitude": "42.698", "Longitude": "-87.9181", "LineType": "LANDLINE"}, "Contacts": {"Contact": {"Name": "TIMOTHY S STAACKE MD PHYSICIANS GENERAL", "Address": "8400 WASHINGTON AVE", "City": "MOUNT PLEASANT", "State": "WI", "PostalCode": "53406-3735", "PhoneType": "BUSINESS", "Latitude": null, "Longitude": null, "SICCode": "80110000", "SICDesc": "OFFICES AND CLINICS OF MEDICAL DOCTORS", "QualityScore": "HIGH"}}, "SMSAddress": null, "MMSAddress": null, "DateFirstSeen": null, "DateOfPorting": null, "NoteCodes": "1,2", "NoteDescriptions": "IsMailable,IsConnected", "TokensUsed": "65"}}}, {"PhoneInfoResponse": {"@xmlns": "http://www.serviceobjects.com", "@xmlns:i": "http://www.w3.org/2001/XMLSchema-instance", "PhoneInfo": {"Provider": {"Name": "AIRUS, INC. - NJ", "City": "KEARNY", "State": "NEW JERSEY", "Latitude": "40.7591", "Longitude": "-74.1224", "LineType": "LANDLINE"}, "SMSAddress": null, "MMSAddress": null, "DateFirstSeen": null, "DateOfPorting": "2018-05-15", "NoteCodes": "3,5", "NoteDescriptions": "IsPorted,IsUnknownContact", "TokensUsed": "35"}}}, {"PhoneInfoResponse": {"@xmlns": "http://www.serviceobjects.com", "@xmlns:i": "http://www.w3.org/2001/XMLSchema-instance", "PhoneInfo": {"Provider": {"Name": "FRONTIER CALIFORNIA", "City": "SANTA MONICA", "State": "CALIFORNIA", "Latitude": "34.0185", "Longitude": "-118.484", "LineType": "LANDLINE"}, "Contacts": {"Contact": {"Name": "GLENDORA RADIOLOGICAL ASSOCIATES INC MEDICAL", "Address": "414 E SAN BERNARDINO RD", "City": "COVINA", "State": "CA", "PostalCode": "91723-1704", "PhoneType": "BUSINESS", "Latitude": "34.090809", "Longitude": "-117.882770", "SICCode": "86210100", "SICDesc": "MEDICAL FIELD-RELATED ASSOCIATIONS", "QualityScore": "HIGH"}}, "SMSAddress": null, "MMSAddress": null, "DateFirstSeen": null, "DateOfPorting": "2018-10-25", "NoteCodes": "1,2,3", "NoteDescriptions": "IsMailable,IsConnected,IsPorted", "TokensUsed": "65"}}}, {"PhoneInfoResponse": {"@xmlns": "http://www.serviceobjects.com", "@xmlns:i": "http://www.w3.org/2001/XMLSchema-instance", "PhoneInfo": {"Provider": {"Name": "CABLEVSN LGHTPATH NJ", "City": "NETCONG", "State": "NEW JERSEY", "Latitude": "40.8971", "Longitude": "-74.7041", "LineType": "LANDLINE"}, "Contacts": {"Contact": {"Name": "ADVANCED EYE CARE AND GLAUCOMA CENTER OF", "Address": "137 MAIN RD STE 300", "City": "MONTVILLE", "State": "NJ", "PostalCode": "07045-9231", "PhoneType": "BUSINESS", "Latitude": null, "Longitude": null, "SICCode": null, "SICDesc": null, "QualityScore": "HIGH"}}, "SMSAddress": null, "MMSAddress": null, "DateFirstSeen": null, "DateOfPorting": "2014-06-23", "NoteCodes": "1,2,3", "NoteDescriptions": "IsMailable,IsConnected,IsPorted", "TokensUsed": "65"}}}, {"PhoneInfoResponse": {"@xmlns": "http://www.serviceobjects.com", "@xmlns:i": "http://www.w3.org/2001/XMLSchema-instance", "PhoneInfo": {"Provider": {"Name": "CTSI, INC. - PA", "City": "ALLENTOWN", "State": "PENNSYLVANIA", "Latitude": "40.591", "Longitude": "-75.5036", "LineType": "LANDLINE"}, "Contacts": {"Contact": {"Name": "ITAY KESHET MD PHYSICIANS SURGEONS", "Address": "2545 SCHOENERSVILLE RD", "City": "BETHLEHEM", "State": "PA", "PostalCode": "18017-7300", "PhoneType": "BUSINESS", "Latitude": null, "Longitude": null, "SICCode": "80310000,80110000", "SICDesc": "OFFICES AND CLINICS OF OSTEOPATHIC PHYSICIANS,OFFICES AND CLINICS OF MEDICAL DOCTORS", "QualityScore": "HIGH"}}, "SMSAddress": null, "MMSAddress": null, "DateFirstSeen": null, "DateOfPorting": "2008-01-28", "NoteCodes": "1,2,3", "NoteDescriptions": "IsMailable,IsConnected,IsPorted", "TokensUsed": "65"}}}, {"PhoneInfoResponse": {"@xmlns": "http://www.serviceobjects.com", "@xmlns:i": "http://www.w3.org/2001/XMLSchema-instance", "PhoneInfo": {"Provider": {"Name": "FRONTIER CALIFORNIA", "City": "COVINA", "State": "CALIFORNIA", "Latitude": "34.0905", "Longitude": "-117.876", "LineType": "LANDLINE"}, "Contacts": {"Contact": {"Name": "KAISER PERMANEN", "Address": "1325 STANDISH PL", "City": "ARCADIA", "State": "CA", "PostalCode": "91006-4568", "PhoneType": "BUSINESS", "Latitude": "34.125157", "Longitude": "-118.011049", "SICCode": null, "SICDesc": null, "QualityScore": "LOW"}}, "SMSAddress": null, "MMSAddress": null, "DateFirstSeen": null, "DateOfPorting": null, "NoteCodes": "1", "NoteDescriptions": "IsMailable", "TokensUsed": "65"}}}, {"PhoneInfoResponse": {"@xmlns": "http://www.serviceobjects.com", "@xmlns:i": "http://www.w3.org/2001/XMLSchema-instance", "PhoneInfo": {"Provider": {"Name": "LEVEL 3 COMM - TX", "City": "ROANOKE", "State": "TEXAS", "Latitude": "32.9961", "Longitude": "-97.1862", "LineType": "VOIP"}, "Contacts": {"Contact": {"Name": "ATLAS OBSTETRICS AND GYNECOLOGY DOCTORS", "Address": null, "City": "RICHARDSON", "State": "TX", "PostalCode": "75080", "PhoneType": "BUSINESS", "Latitude": null, "Longitude": null, "SICCode": null, "SICDesc": null, "QualityScore": "HIGH"}}, "SMSAddress": null, "MMSAddress": null, "DateFirstSeen": null, "DateOfPorting": "2019-09-04", "NoteCodes": "2,3,12", "NoteDescriptions": "IsConnected,IsPorted,IsPossiblePortableVOIP", "TokensUsed": "65"}}}, {"PhoneInfoResponse": {"@xmlns": "http://www.serviceobjects.com", "@xmlns:i": "http://www.w3.org/2001/XMLSchema-instance", "PhoneInfo": {"Provider": {"Name": "TELEPORT COMM AM-IL", "City": "ELWOOD", "State": "ILLINOIS", "Latitude": "41.424", "Longitude": "-88.0843", "LineType": "LANDLINE"}, "Contacts": {"Contact": {"Name": "NW MEMORIAL HOS", "Address": null, "City": "CHICAGO", "State": "IL", "PostalCode": "60611", "PhoneType": "BUSINESS", "Latitude": null, "Longitude": null, "SICCode": null, "SICDesc": null, "QualityScore": "LOW"}}, "SMSAddress": null, "MMSAddress": null, "DateFirstSeen": null, "DateOfPorting": "2019-04-01", "NoteCodes": "3", "NoteDescriptions": "IsPorted", "TokensUsed": "65"}}}, {"PhoneInfoResponse": {"@xmlns": "http://www.serviceobjects.com", "@xmlns:i": "http://www.w3.org/2001/XMLSchema-instance", "PhoneInfo": {"Provider": {"Name": "FRONTIER COMM OF TX", "City": "BRYAN", "State": "TEXAS", "Latitude": "30.788", "Longitude": "-96.3232", "LineType": "LANDLINE"}, "SMSAddress": null, "MMSAddress": null, "DateFirstSeen": null, "DateOfPorting": null, "NoteCodes": "5", "NoteDescriptions": "IsUnknownContact", "TokensUsed": "35"}}}, {"PhoneInfoResponse": {"@xmlns": "http://www.serviceobjects.com", "@xmlns:i": "http://www.w3.org/2001/XMLSchema-instance", "PhoneInfo": {"Provider": {"Name": "COMCAST PHONE-IL", "City": "GENEVA", "State": "ILLINOIS", "Latitude": "41.8859", "Longitude": "-88.3101", "LineType": "VOIP"}, "Contacts": {"Contact": {"Name": "DR ROY C BLILEY MD PHYSICIANS SURGEONS CARDIOLOGY", "Address": "13011 S 104TH AVE STE 100", "City": "PALOS PARK", "State": "IL", "PostalCode": "60464-1508", "PhoneType": "BUSINESS", "Latitude": "41.653387", "Longitude": "-87.873628", "SICCode": null, "SICDesc": null, "QualityScore": "HIGH"}}, "SMSAddress": null, "MMSAddress": null, "DateFirstSeen": null, "DateOfPorting": "2019-07-22", "NoteCodes": "1,2,3", "NoteDescriptions": "IsMailable,IsConnected,IsPorted", "TokensUsed": "65"}}}, {"PhoneInfoResponse": {"@xmlns": "http://www.serviceobjects.com", "@xmlns:i": "http://www.w3.org/2001/XMLSchema-instance", "PhoneInfo": {"Provider": {"Name": "CTSI, INC. - PA", "City": "HARRISBURG", "State": "PENNSYLVANIA", "Latitude": "40.2835", "Longitude": "-76.843", "LineType": "LANDLINE"}, "Contacts": {"Contact": {"Name": "LANCASTER REGIONAL MEDICAL CENTER EMERGENCY", "Address": "250 COLLEGE AVE", "City": "LANCASTER", "State": "PA", "PostalCode": "17603-3363", "PhoneType": "BUSINESS", "Latitude": "40.040495", "Longitude": "-76.320678", "SICCode": null, "SICDesc": null, "QualityScore": "HIGH"}}, "SMSAddress": null, "MMSAddress": null, "DateFirstSeen": null, "DateOfPorting": "2002-07-09", "NoteCodes": "1,2,3", "NoteDescriptions": "IsMailable,IsConnected,IsPorted", "TokensUsed": "65"}}}, {"PhoneInfoResponse": {"@xmlns": "http://www.serviceobjects.com", "@xmlns:i": "http://www.w3.org/2001/XMLSchema-instance", "PhoneInfo": {"Provider": {"Name": "QUANTUM TELECOM MD", "City": "BALTIMORE", "State": "MARYLAND", "Latitude": "39.3157", "Longitude": "-76.6278", "LineType": "LANDLINE"}, "Contacts": {"Contact": {"Name": "MANCHESTER FAMILY MEDICINE PHYSICIANS SURGEONS", "Address": "2973 MANCHESTER RD", "City": "MANCHESTER", "State": "MD", "PostalCode": "21102-1802", "PhoneType": "BUSINESS", "Latitude": "39.660304", "Longitude": "-76.892701", "SICCode": null, "SICDesc": null, "QualityScore": "HIGH"}}, "SMSAddress": null, "MMSAddress": null, "DateFirstSeen": null, "DateOfPorting": "2019-02-22", "NoteCodes": "1,2,3", "NoteDescriptions": "IsMailable,IsConnected,IsPorted", "TokensUsed": "65"}}}, {"PhoneInfoResponse": {"@xmlns": "http://www.serviceobjects.com", "@xmlns:i": "http://www.w3.org/2001/XMLSchema-instance", "PhoneInfo": {"Provider": {"Name": "TELEPORT COM SANFRAN", "City": "YOUNTVILLE", "State": "CALIFORNIA", "Latitude": "38.4055", "Longitude": "-122.359", "LineType": "LANDLINE"}, "Contacts": {"Contact": {"Name": "SANTA CRUZ COUNTY OF CHILDRENS MEDICAL CLINIC", "Address": "1400 EMELINE AVE", "City": "SANTA CRUZ", "State": "CA", "PostalCode": "95060-1976", "PhoneType": "BUSINESS", "Latitude": null, "Longitude": null, "SICCode": "91110204,80490000", "SICDesc": "MAYORS' OFFICE,OFFICES OF HEALTH PRACTITIONER", "QualityScore": "HIGH"}}, "SMSAddress": null, "MMSAddress": null, "DateFirstSeen": null, "DateOfPorting": "2018-01-06", "NoteCodes": "1,2,3", "NoteDescriptions": "IsMailable,IsConnected,IsPorted", "TokensUsed": "65"}}}, {"PhoneInfoResponse": {"@xmlns": "http://www.serviceobjects.com", "@xmlns:i": "http://www.w3.org/2001/XMLSchema-instance", "PhoneInfo": {"Provider": {"Name": "CINCINNATI BELL", "City": "CINCINNATI", "State": "OHIO", "Latitude": "39.17", "Longitude": "-84.4929", "LineType": "LANDLINE"}, "Contacts": {"Contact": {"Name": "TAYYAB DIWAN", "Address": "443 CLUB DR", "City": "MILFORD", "State": "OH", "PostalCode": "45150-9757", "PhoneType": "RESIDENTIAL", "Latitude": "39.159808", "Longitude": "-84.297119", "SICCode": null, "SICDesc": null, "QualityScore": "LOW"}}, "SMSAddress": null, "MMSAddress": null, "DateFirstSeen": null, "DateOfPorting": null, "NoteCodes": "1", "NoteDescriptions": "IsMailable", "TokensUsed": "65"}}}, {"PhoneInfoResponse": {"@xmlns": "http://www.serviceobjects.com", "@xmlns:i": "http://www.w3.org/2001/XMLSchema-instance", "PhoneInfo": {"Provider": {"Name": "HINTON TEL CO", "City": "HINTON", "State": "OKLAHOMA", "Latitude": "35.4731", "Longitude": "-98.3557", "LineType": "LANDLINE"}, "Contacts": {"Contact": {"Name": "INTEGRIS FAMILY CARE HINTON CLINIC CLINICS MEDICAL", "Address": "1714 N BROADWAY BLVD", "City": "HINTON", "State": "OK", "PostalCode": "73047-9484", "PhoneType": "BUSINESS", "Latitude": null, "Longitude": null, "SICCode": "80110000,80310000,80490000", "SICDesc": "OFFICES AND CLINICS OF MEDICAL DOCTORS,OFFICES AND CLINICS OF OSTEOPATHIC PHYSICIANS,OFFICES OF HEALTH PRACTITIONER", "QualityScore": "HIGH"}}, "SMSAddress": null, "MMSAddress": null, "DateFirstSeen": null, "DateOfPorting": null, "NoteCodes": "1,2", "NoteDescriptions": "IsMailable,IsConnected", "TokensUsed": "65"}}}, {"PhoneInfoResponse": {"@xmlns": "http://www.serviceobjects.com", "@xmlns:i": "http://www.w3.org/2001/XMLSchema-instance", "PhoneInfo": {"Provider": {"Name": "FRONTIER COMM AM-NC", "City": "RALEIGH", "State": "NORTH CAROLINA", "Latitude": "35.8132", "Longitude": "-78.6415", "LineType": "LANDLINE"}, "Contacts": {"Contact": {"Name": "DUKE UNIVERSITY", "Address": "2138 CAMPUS DR # 90586", "City": "DURHAM", "State": "NC", "PostalCode": "27708-0001", "PhoneType": "BUSINESS", "Latitude": null, "Longitude": null, "SICCode": null, "SICDesc": null, "QualityScore": "LOW"}}, "SMSAddress": null, "MMSAddress": null, "DateFirstSeen": null, "DateOfPorting": "2014-01-22", "NoteCodes": "1,3", "NoteDescriptions": "IsMailable,IsPorted", "TokensUsed": "65"}}}, {"PhoneInfoResponse": {"@xmlns": "http://www.serviceobjects.com", "@xmlns:i": "http://www.w3.org/2001/XMLSchema-instance", "PhoneInfo": {"Provider": {"Name": "FRONTIER CALIFORNIA", "City": "TORRANCE", "State": "CALIFORNIA", "Latitude": "33.8413", "Longitude": "-118.326", "LineType": "LANDLINE"}, "Contacts": {"Contact": {"Name": "LINDA KATELL", "Address": "1120 VIA MIRABEL", "City": "PALOS VERDES ESTATES", "State": "CA", "PostalCode": "90274-1622", "PhoneType": "RESIDENTIAL", "Latitude": "33.791515", "Longitude": "-118.397607", "SICCode": null, "SICDesc": null, "QualityScore": "LOW"}}, "SMSAddress": null, "MMSAddress": null, "DateFirstSeen": null, "DateOfPorting": null, "NoteCodes": "1", "NoteDescriptions": "IsMailable", "TokensUsed": "65"}}}, {"PhoneInfoResponse": {"@xmlns": "http://www.serviceobjects.com", "@xmlns:i": "http://www.w3.org/2001/XMLSchema-instance", "PhoneInfo": {"Provider": {"Name": "NET LEC, INC.", "City": "GREEN BAY", "State": "WISCONSIN", "Latitude": "44.5049", "Longitude": "-88.045", "LineType": "LANDLINE"}, "Contacts": {"Contact": {"Name": "HUFF AMANDA HALLAS R AUD CCC A PHYSICIANS SURGEONS", "Address": "1715 DOUSMAN ST", "City": "GREEN BAY", "State": "WI", "PostalCode": "54303-3211", "PhoneType": "BUSINESS", "Latitude": "44.534687", "Longitude": "-88.064986", "SICCode": "80490401,80110000,80310000", "SICDesc": "CLINICAL PSYCHOLOGIST,OFFICES AND CLINICS OF MEDICAL DOCTORS,OFFICES AND CLINICS OF OSTEOPATHIC PHYSICIANS", "QualityScore": "HIGH"}}, "SMSAddress": null, "MMSAddress": null, "DateFirstSeen": null, "DateOfPorting": "2002-03-07", "NoteCodes": "1,2,3", "NoteDescriptions": "IsMailable,IsConnected,IsPorted", "TokensUsed": "65"}}}, {"PhoneInfoResponse": {"@xmlns": "http://www.serviceobjects.com", "@xmlns:i": "http://www.w3.org/2001/XMLSchema-instance", "PhoneInfo": {"Provider": {"Name": "COMCAST PHONE - CA", "City": "LIVERMORE", "State": "CALIFORNIA", "Latitude": "37.7052", "Longitude": "-121.721", "LineType": "VOIP"}, "Contacts": {"Contact": {"Name": "JARED LEWIS", "Address": "2927 MAXWELL AVE", "City": "OAKLAND", "State": "CA", "PostalCode": "94619-3362", "PhoneType": "RESIDENTIAL", "Latitude": "37.780528", "Longitude": "-122.193978", "SICCode": null, "SICDesc": null, "QualityScore": "LOW"}}, "SMSAddress": null, "MMSAddress": null, "DateFirstSeen": null, "DateOfPorting": "2014-10-07", "NoteCodes": "1,3", "NoteDescriptions": "IsMailable,IsPorted", "TokensUsed": "65"}}}, {"PhoneInfoResponse": {"@xmlns": "http://www.serviceobjects.com", "@xmlns:i": "http://www.w3.org/2001/XMLSchema-instance", "PhoneInfo": {"Provider": {"Name": "BIXBY TELEPHONE CO", "City": "BIXBY", "State": "OKLAHOMA", "Latitude": "35.9499", "Longitude": "-95.889", "LineType": "UNKNOWN"}, "Contacts": {"Contact": {"Name": "KUSUM BHANDARI", "Address": "6267 E 140TH ST S", "City": "BIXBY", "State": "OK", "PostalCode": "74008-4170", "PhoneType": "RESIDENTIAL", "Latitude": null, "Longitude": null, "SICCode": null, "SICDesc": null, "QualityScore": "HIGH"}}, "SMSAddress": null, "MMSAddress": null, "DateFirstSeen": null, "DateOfPorting": null, "NoteCodes": "1,2", "NoteDescriptions": "IsMailable,IsConnected", "TokensUsed": "65"}}}, {"PhoneInfoResponse": {"@xmlns": "http://www.serviceobjects.com", "@xmlns:i": "http://www.w3.org/2001/XMLSchema-instance", "PhoneInfo": {"Provider": {"Name": "GENERAL COMM - CLEC", "City": "ELMENDORF", "State": "ALASKA", "Latitude": "61.23724", "Longitude": "-149.84386", "LineType": "LANDLINE"}, "SMSAddress": null, "MMSAddress": null, "DateFirstSeen": null, "DateOfPorting": null, "NoteCodes": "5", "NoteDescriptions": "IsUnknownContact", "TokensUsed": "35"}}}, {"PhoneInfoResponse": {"@xmlns": "http://www.serviceobjects.com", "@xmlns:i": "http://www.w3.org/2001/XMLSchema-instance", "PhoneInfo": {"Provider": {"Name": "TELEPORT COMM AM-IN", "City": "ACTON", "State": "INDIANA", "Latitude": "39.695", "Longitude": "-85.985", "LineType": "LANDLINE"}, "Contacts": {"Contact": {"Name": "CARDINAL HEALTH SYSTEM PHARMACIES", "Address": null, "City": "MUNCIE", "State": "IN", "PostalCode": "47302", "PhoneType": "BUSINESS", "Latitude": null, "Longitude": null, "SICCode": null, "SICDesc": null, "QualityScore": "MED"}}, "SMSAddress": null, "MMSAddress": null, "DateFirstSeen": null, "DateOfPorting": "2019-08-08", "NoteCodes": "2,3", "NoteDescriptions": "IsConnected,IsPorted", "TokensUsed": "65"}}}, {"PhoneInfoResponse": {"@xmlns": "http://www.serviceobjects.com", "@xmlns:i": "http://www.w3.org/2001/XMLSchema-instance", "PhoneInfo": {"Provider": {"Name": "CABLEVSN LGHTPATH NY", "City": "PORT JEFFERSON STATI", "State": "NEW YORK", "Latitude": "40.946", "Longitude": "-73.07104", "LineType": "LANDLINE"}, "Contacts": {"Contact": {"Name": "CHAUDRY AZIZ MD DOCTORS PHYSICIANS SURGEONS", "Address": "2 MEDICAL DR STE B", "City": "PORT JEFFERSON STATION", "State": "NY", "PostalCode": "11776-1598", "PhoneType": "BUSINESS", "Latitude": "40.928863", "Longitude": "-73.042477", "SICCode": "80110000", "SICDesc": "OFFICES AND CLINICS OF MEDICAL DOCTORS", "QualityScore": "HIGH"}}, "SMSAddress": null, "MMSAddress": null, "DateFirstSeen": null, "DateOfPorting": "2015-06-24", "NoteCodes": "1,2,3", "NoteDescriptions": "IsMailable,IsConnected,IsPorted", "TokensUsed": "65"}}}, {"PhoneInfoResponse": {"@xmlns": "http://www.serviceobjects.com", "@xmlns:i": "http://www.w3.org/2001/XMLSchema-instance", "PhoneInfo": {"Provider": {"Name": "AMERITECH INDIANA", "City": "INDIANAPOLIS", "State": "INDIANA", "Latitude": "39.7944", "Longitude": "-86.157", "LineType": "LANDLINE"}, "Contacts": {"Contact": {"Name": "WISHARD MEMORIAL HOSPITAL", "Address": "1050 WISHARD BLVD", "City": "INDIANAPOLIS", "State": "IN", "PostalCode": "46202-2872", "PhoneType": "BUSINESS", "Latitude": "39.778662", "Longitude": "-86.175247", "SICCode": null, "SICDesc": null, "QualityScore": "LOW"}}, "SMSAddress": null, "MMSAddress": null, "DateFirstSeen": null, "DateOfPorting": "2004-06-25", "NoteCodes": "1,3", "NoteDescriptions": "IsMailable,IsPorted", "TokensUsed": "65"}}}, {"PhoneInfoResponse": {"@xmlns": "http://www.serviceobjects.com", "@xmlns:i": "http://www.w3.org/2001/XMLSchema-instance", "PhoneInfo": {"Provider": {"Name": "FRONTIER CALIFORNIA", "City": "DOWNEY", "State": "CALIFORNIA", "Latitude": "33.9385", "Longitude": "-118.127", "LineType": "LANDLINE"}, "Contacts": {"Contact": {"Name": "APPLE CARE HOSPITALIST MEDICAL GROUP", "Address": null, "City": "DOWNEY", "State": "CA", "PostalCode": "90241", "PhoneType": "BUSINESS", "Latitude": null, "Longitude": null, "SICCode": null, "SICDesc": null, "QualityScore": "LOW"}}, "SMSAddress": null, "MMSAddress": null, "DateFirstSeen": null, "DateOfPorting": null, "NoteCodes": null, "NoteDescriptions": null, "TokensUsed": "65"}}}, {"PhoneInfoResponse": {"@xmlns": "http://www.serviceobjects.com", "@xmlns:i": "http://www.w3.org/2001/XMLSchema-instance", "PhoneInfo": {"Provider": {"Name": "COMMONWEALTH TELCO", "City": "BANGOR", "State": "PENNSYLVANIA", "Latitude": "40.8733", "Longitude": "-75.1879", "LineType": "LANDLINE"}, "Contacts": {"Contact": {"Name": "BANGOR MEDICAL CENTER FRANCIS J CINELLI DOCTORS", "Address": "153 N 11TH ST", "City": "BANGOR", "State": "PA", "PostalCode": "18013-1603", "PhoneType": "BUSINESS", "Latitude": null, "Longitude": null, "SICCode": "80310000,80110000", "SICDesc": "OFFICES AND CLINICS OF OSTEOPATHIC PHYSICIANS,OFFICES AND CLINICS OF MEDICAL DOCTORS", "QualityScore": "HIGH"}}, "SMSAddress": null, "MMSAddress": null, "DateFirstSeen": null, "DateOfPorting": null, "NoteCodes": "1,2", "NoteDescriptions": "IsMailable,IsConnected", "TokensUsed": "65"}}}, {"PhoneInfoResponse": {"@xmlns": "http://www.serviceobjects.com", "@xmlns:i": "http://www.w3.org/2001/XMLSchema-instance", "PhoneInfo": {"Provider": {"Name": "MCI WORLDCOM COMM FL", "City": "TAMPA", "State": "FLORIDA", "Latitude": "27.9896", "Longitude": "-82.4746", "LineType": "LANDLINE"}, "Contacts": {"Contact": {"Name": "UNIVERSITY OF SOUTH FLORIDA MEDICAL APPOINTMENTS", "Address": "MEDICAL APPOINTMENTS", "City": "TAMPA", "State": "FL", "PostalCode": "33620-0001", "PhoneType": "BUSINESS", "Latitude": "28.061100", "Longitude": "-82.409795", "SICCode": "82210000", "SICDesc": "COLLEGES AND UNIVERSITIES", "QualityScore": "HIGH"}}, "SMSAddress": null, "MMSAddress": null, "DateFirstSeen": null, "DateOfPorting": "2019-07-18", "NoteCodes": "1,2,3", "NoteDescriptions": "IsMailable,IsConnected,IsPorted", "TokensUsed": "65"}}}, {"PhoneInfoResponse": {"@xmlns": "http://www.serviceobjects.com", "@xmlns:i": "http://www.w3.org/2001/XMLSchema-instance", "PhoneInfo": {"Provider": {"Name": "CTSI, INC. - PA", "City": "ALLENTOWN", "State": "PENNSYLVANIA", "Latitude": "40.591", "Longitude": "-75.5036", "LineType": "LANDLINE"}, "Contacts": {"Contact": {"Name": "MELVIN L STEINBOOK MD PHYSICIANS SURGEONS", "Address": "2597 SCHOENERSVILLE RD STE 307", "City": "BETHLEHEM", "State": "PA", "PostalCode": "18017-7331", "PhoneType": "BUSINESS", "Latitude": null, "Longitude": null, "SICCode": "80110000,80310000", "SICDesc": "OFFICES AND CLINICS OF MEDICAL DOCTORS,OFFICES AND CLINICS OF OSTEOPATHIC PHYSICIANS", "QualityScore": "HIGH"}}, "SMSAddress": null, "MMSAddress": null, "DateFirstSeen": null, "DateOfPorting": "2008-01-28", "NoteCodes": "1,2,3", "NoteDescriptions": "IsMailable,IsConnected,IsPorted", "TokensUsed": "65"}}}, {"PhoneInfoResponse": {"@xmlns": "http://www.serviceobjects.com", "@xmlns:i": "http://www.w3.org/2001/XMLSchema-instance", "PhoneInfo": {"Provider": {"Name": "CAVALIER TELEPHONE", "City": "WASHINGTON", "State": "DISTRICT OF COLUMBIA", "Latitude": "38.8976", "Longitude": "-77.028", "LineType": "LANDLINE"}, "Contacts": {"Contact": {"Name": "ERDULFO ANTONIO ROMERO JR MD INTERNAL MEDICINE", "Address": "50 IRVING ST NW", "City": "WASHINGTON", "State": "DC", "PostalCode": "20422-0001", "PhoneType": "BUSINESS", "Latitude": "38.931238", "Longitude": "-77.008886", "SICCode": "80620000", "SICDesc": "GENERAL MEDICAL AND SURGICAL HOSPITALS", "QualityScore": "HIGH"}}, "SMSAddress": null, "MMSAddress": null, "DateFirstSeen": null, "DateOfPorting": "2014-05-02", "NoteCodes": "1,2,3", "NoteDescriptions": "IsMailable,IsConnected,IsPorted", "TokensUsed": "65"}}}, {"PhoneInfoResponse": {"@xmlns": "http://www.serviceobjects.com", "@xmlns:i": "http://www.w3.org/2001/XMLSchema-instance", "PhoneInfo": {"Provider": {"Name": "DFT SELECT ONE-NY", "City": "JAMESTOWN", "State": "NEW YORK", "Latitude": "42.0959", "Longitude": "-79.2443", "LineType": "LANDLINE"}, "Contacts": {"Contact": {"Name": "MORTON CHRISTOPHER PA CLINICS MEDICAL", "Address": "95 E CHAUTAUQUA ST", "City": "MAYVILLE", "State": "NY", "PostalCode": "14757-1017", "PhoneType": "BUSINESS", "Latitude": "42.257621", "Longitude": "-79.500367", "SICCode": "80110000,86210100", "SICDesc": "OFFICES AND CLINICS OF MEDICAL DOCTORS,MEDICAL FIELD-RELATED ASSOCIATIONS", "QualityScore": "HIGH"}}, "SMSAddress": null, "MMSAddress": null, "DateFirstSeen": null, "DateOfPorting": "2007-08-02", "NoteCodes": "1,2,3", "NoteDescriptions": "IsMailable,IsConnected,IsPorted", "TokensUsed": "65"}}}, {"PhoneInfoResponse": {"@xmlns": "http://www.serviceobjects.com", "@xmlns:i": "http://www.w3.org/2001/XMLSchema-instance", "PhoneInfo": {"Provider": {"Name": "CONSOLIDATED NH", "City": "LITTLETON", "State": "NEW HAMPSHIRE", "Latitude": "44.308", "Longitude": "-71.7724", "LineType": "LANDLINE"}, "Contacts": {"Contact": {"Name": "AMMONOOSUC COMMUNITY HEALTH SERVICES INC CLINICS", "Address": "25 MOUNT EUSTIS RD", "City": "LITTLETON", "State": "NH", "PostalCode": "03561-3712", "PhoneType": "BUSINESS", "Latitude": null, "Longitude": null, "SICCode": "80110000,80310000,63210100", "SICDesc": "OFFICES AND CLINICS OF MEDICAL DOCTORS,OFFICES AND CLINICS OF OSTEOPATHIC PHYSICIANS,ACCIDENT AND HEALTH INSURANCE CARRIERS", "QualityScore": "HIGH"}}, "SMSAddress": null, "MMSAddress": null, "DateFirstSeen": null, "DateOfPorting": null, "NoteCodes": "1,2", "NoteDescriptions": "IsMailable,IsConnected", "TokensUsed": "65"}}}, {"PhoneInfoResponse": {"@xmlns": "http://www.serviceobjects.com", "@xmlns:i": "http://www.w3.org/2001/XMLSchema-instance", "PhoneInfo": {"Provider": {"Name": "ELECTRONET INTERMEDI", "City": "TALLAHASSEE", "State": "FLORIDA", "Latitude": "30.4617", "Longitude": "-84.2387", "LineType": "LANDLINE"}, "Contacts": {"Contact": {"Name": "TALLAHASSEE ORTHOPEDIC CLINIC PA DOCTORS", "Address": "3334 CAPITAL MEDICAL BLVD STE 700", "City": "TALLAHASSEE", "State": "FL", "PostalCode": "32308-4483", "PhoneType": "BUSINESS", "Latitude": "30.475694", "Longitude": "-84.224556", "SICCode": "80490000", "SICDesc": "OFFICES OF HEALTH PRACTITIONER", "QualityScore": "HIGH"}}, "SMSAddress": null, "MMSAddress": null, "DateFirstSeen": null, "DateOfPorting": "2018-07-27", "NoteCodes": "1,2,3", "NoteDescriptions": "IsMailable,IsConnected,IsPorted", "TokensUsed": "65"}}}, {"PhoneInfoResponse": {"@xmlns": "http://www.serviceobjects.com", "@xmlns:i": "http://www.w3.org/2001/XMLSchema-instance", "PhoneInfo": {"Provider": {"Name": "TELEPORT COMM AM-IN", "City": "VINCENNES", "State": "INDIANA", "Latitude": "38.6803", "Longitude": "-87.4231", "LineType": "LANDLINE"}, "Contacts": {"Contact": {"Name": "IU HLTH BLOOMIN", "Address": null, "City": "BLOOMINGTON", "State": "IN", "PostalCode": "47408", "PhoneType": "BUSINESS", "Latitude": null, "Longitude": null, "SICCode": "80110000,80310000", "SICDesc": "OFFICES AND CLINICS OF MEDICAL DOCTORS,OFFICES AND CLINICS OF OSTEOPATHIC PHYSICIANS", "QualityScore": "LOW"}}, "SMSAddress": null, "MMSAddress": null, "DateFirstSeen": null, "DateOfPorting": "2018-05-22", "NoteCodes": "3", "NoteDescriptions": "IsPorted", "TokensUsed": "65"}}}, {"PhoneInfoResponse": {"@xmlns": "http://www.serviceobjects.com", "@xmlns:i": "http://www.w3.org/2001/XMLSchema-instance", "PhoneInfo": {"Provider": {"Name": "HORRY TEL COOP INC", "City": "CONWAY", "State": "SOUTH CAROLINA", "Latitude": "33.7904", "Longitude": "-79.0637", "LineType": "LANDLINE"}, "Contacts": {"Contact": {"Name": "SC EASTCONWAY", "Address": null, "City": null, "State": null, "PostalCode": null, "PhoneType": "RESIDENTIAL", "Latitude": null, "Longitude": null, "SICCode": null, "SICDesc": null, "QualityScore": "MED"}}, "SMSAddress": null, "MMSAddress": null, "DateFirstSeen": null, "DateOfPorting": null, "NoteCodes": "2", "NoteDescriptions": "IsConnected", "TokensUsed": "65"}}}, {"PhoneInfoResponse": {"@xmlns": "http://www.serviceobjects.com", "@xmlns:i": "http://www.w3.org/2001/XMLSchema-instance", "PhoneInfo": {"Provider": {"Name": "WINDSTREAM KY-LXGTN", "City": "ASHLAND", "State": "KENTUCKY", "Latitude": "38.4525", "Longitude": "-82.6626", "LineType": "LANDLINE"}, "Contacts": {"Contact": {"Name": "KINGS DAUGHTERS MEDICAL CENTER EMERGENCY DEPT", "Address": "2201 LEXINGTON AVE", "City": "ASHLAND", "State": "KY", "PostalCode": "41101-2843", "PhoneType": "BUSINESS", "Latitude": "38.469945", "Longitude": "-82.635127", "SICCode": "80620000", "SICDesc": "GENERAL MEDICAL AND SURGICAL HOSPITALS", "QualityScore": "HIGH"}}, "SMSAddress": null, "MMSAddress": null, "DateFirstSeen": null, "DateOfPorting": null, "NoteCodes": "1,2", "NoteDescriptions": "IsMailable,IsConnected", "TokensUsed": "65"}}}, {"PhoneInfoResponse": {"@xmlns": "http://www.serviceobjects.com", "@xmlns:i": "http://www.w3.org/2001/XMLSchema-instance", "PhoneInfo": {"Provider": {"Name": "FREEDOM RING LLC CLC", "City": "MANCHESTER", "State": "NEW HAMPSHIRE", "Latitude": "42.9741", "Longitude": "-71.4515", "LineType": "LANDLINE"}, "Contacts": {"Contact": {"Name": "LAMPREY HEALTH CARE HEALTHCARE", "Address": null, "City": "RAYMOND", "State": "NH", "PostalCode": "03077", "PhoneType": "BUSINESS", "Latitude": null, "Longitude": null, "SICCode": "80110000", "SICDesc": "OFFICES AND CLINICS OF MEDICAL DOCTORS", "QualityScore": "HIGH"}}, "SMSAddress": null, "MMSAddress": null, "DateFirstSeen": null, "DateOfPorting": "2010-05-11", "NoteCodes": "2,3", "NoteDescriptions": "IsConnected,IsPorted", "TokensUsed": "65"}}}, {"PhoneInfoResponse": {"@xmlns": "http://www.serviceobjects.com", "@xmlns:i": "http://www.w3.org/2001/XMLSchema-instance", "PhoneInfo": {"Provider": {"Name": "FRONTIER CALIFORNIA", "City": "SANTA MONICA", "State": "CALIFORNIA", "Latitude": "34.0185", "Longitude": "-118.484", "LineType": "LANDLINE"}, "Contacts": {"Contact": {"Name": "WOMEN'S HEALTH SERVICES AT SAINT JOHN'S HEALTH", "Address": "1328 22ND ST", "City": "SANTA MONICA", "State": "CA", "PostalCode": "90404-2032", "PhoneType": "BUSINESS", "Latitude": "34.031452", "Longitude": "-118.479623", "SICCode": null, "SICDesc": null, "QualityScore": "LOW"}}, "SMSAddress": null, "MMSAddress": null, "DateFirstSeen": null, "DateOfPorting": null, "NoteCodes": "1", "NoteDescriptions": "IsMailable", "TokensUsed": "65"}}}, {"PhoneInfoResponse": {"@xmlns": "http://www.serviceobjects.com", "@xmlns:i": "http://www.w3.org/2001/XMLSchema-instance", "PhoneInfo": {"Provider": {"Name": "VERIZON PENNSYLVANIA", "City": "PITTSBURGH", "State": "PENNSYLVANIA", "Latitude": "40.4473", "Longitude": "-79.9934", "LineType": "LANDLINE"}, "Contacts": {"Contact": {"Name": "STOFMAN GUY MD FACS", "Address": "1515 LOCUST ST", "City": "PITTSBURGH", "State": "PA", "PostalCode": "15219-5131", "PhoneType": "BUSINESS", "Latitude": "40.437019", "Longitude": "-79.984374", "SICCode": "80110000,80310000,80490000", "SICDesc": "OFFICES AND CLINICS OF MEDICAL DOCTORS,OFFICES AND CLINICS OF OSTEOPATHIC PHYSICIANS,OFFICES OF HEALTH PRACTITIONER", "QualityScore": "HIGH"}}, "SMSAddress": null, "MMSAddress": null, "DateFirstSeen": null, "DateOfPorting": null, "NoteCodes": "1,2", "NoteDescriptions": "IsMailable,IsConnected", "TokensUsed": "65"}}}, {"PhoneInfoResponse": {"@xmlns": "http://www.serviceobjects.com", "@xmlns:i": "http://www.w3.org/2001/XMLSchema-instance", "PhoneInfo": {"Provider": {"Name": "VERIZON PENNSYLVANIA", "City": "WILLIAMSPORT", "State": "PENNSYLVANIA", "Latitude": "41.2505", "Longitude": "-77.0265", "LineType": "LANDLINE"}, "Contacts": {"Contact": {"Name": "SUSQUEHANNA UROLOGIC ASSOCIATES LTD PHYSICIANS", "Address": "1705 WARREN AVE STE 206", "City": "WILLIAMSPORT", "State": "PA", "PostalCode": "17701-2664", "PhoneType": "BUSINESS", "Latitude": "41.260143", "Longitude": "-76.981400", "SICCode": "80110000,80310000", "SICDesc": "OFFICES AND CLINICS OF MEDICAL DOCTORS,OFFICES AND CLINICS OF OSTEOPATHIC PHYSICIANS", "QualityScore": "HIGH"}}, "SMSAddress": null, "MMSAddress": null, "DateFirstSeen": null, "DateOfPorting": null, "NoteCodes": "1,2", "NoteDescriptions": "IsMailable,IsConnected", "TokensUsed": "65"}}}, {"PhoneInfoResponse": {"@xmlns": "http://www.serviceobjects.com", "@xmlns:i": "http://www.w3.org/2001/XMLSchema-instance", "PhoneInfo": {"Provider": {"Name": "XO NEW YORK, INC.", "City": "NEW YORK CITY", "State": "NEW YORK", "Latitude": "40.7", "Longitude": "-74", "LineType": "VOIP"}, "Contacts": {"Contact": {"Name": "GRECO GIAMPAOLO", "Address": "1 GUSTAVE L LEVY PL FL 12", "City": "NEW YORK", "State": "NY", "PostalCode": "10029-6500", "PhoneType": "RESIDENTIAL", "Latitude": "40.790330", "Longitude": "-73.953566", "SICCode": null, "SICDesc": null, "QualityScore": "LOW"}}, "SMSAddress": null, "MMSAddress": null, "DateFirstSeen": null, "DateOfPorting": "2019-04-17", "NoteCodes": "1,3", "NoteDescriptions": "IsMailable,IsPorted", "TokensUsed": "65"}}}, {"PhoneInfoResponse": {"@xmlns": "http://www.serviceobjects.com", "@xmlns:i": "http://www.w3.org/2001/XMLSchema-instance", "PhoneInfo": {"Provider": {"Name": "FRONTIER CALIFORNIA", "City": "SANTA MONICA", "State": "CALIFORNIA", "Latitude": "34.0185", "Longitude": "-118.484", "LineType": "LANDLINE"}, "Contacts": {"Contact": {"Name": "CLAREMONT PSYCHIATRIC CLINICS PSYCHIATRIC", "Address": "318 N INDIAN HILL BLVD", "City": "CLAREMONT", "State": "CA", "PostalCode": "91711-4611", "PhoneType": "BUSINESS", "Latitude": "34.096909", "Longitude": "-117.719389", "SICCode": null, "SICDesc": null, "QualityScore": "HIGH"}}, "SMSAddress": null, "MMSAddress": null, "DateFirstSeen": null, "DateOfPorting": "2013-09-29", "NoteCodes": "1,2,3", "NoteDescriptions": "IsMailable,IsConnected,IsPorted", "TokensUsed": "65"}}}]