[{"PhoneInfoResponse": {"@xmlns": "http://www.serviceobjects.com", "@xmlns:i": "http://www.w3.org/2001/XMLSchema-instance", "PhoneInfo": {"Provider": {"Name": "PACIFIC BELL", "City": "ALHAMBRA", "State": "CALIFORNIA", "Latitude": "34.0884", "Longitude": "-118.13", "LineType": "LANDLINE"}, "Contacts": {"Contact": {"Name": "THOMAS M LIN MD PHYSICIANS SURGEONS", "Address": "725 S ATLANTIC BLVD APT B", "City": "MONTEREY PARK", "State": "CA", "PostalCode": "91754-3856", "PhoneType": "BUSINESS", "Latitude": null, "Longitude": null, "SICCode": "80110000,80110300", "SICDesc": "OFFICES AND CLINICS OF MEDICAL DOCTORS,MEDICAL INSURANCE ASSOCIATIONS", "QualityScore": "HIGH"}}, "SMSAddress": null, "MMSAddress": null, "DateFirstSeen": null, "DateOfPorting": null, "NoteCodes": "1,2", "NoteDescriptions": "IsMailable,IsConnected", "TokensUsed": "65"}}}, {"PhoneInfoResponse": {"@xmlns": "http://www.serviceobjects.com", "@xmlns:i": "http://www.w3.org/2001/XMLSchema-instance", "PhoneInfo": {"Provider": {"Name": "QWEST CORPORATION", "City": "PHOENIX", "State": "ARIZONA", "Latitude": "33.5177", "Longitude": "-112.075", "LineType": "LANDLINE"}, "Contacts": {"Contact": {"Name": "PHX CHILDRENS H", "Address": null, "City": "PHOENIX", "State": "AZ", "PostalCode": "85012", "PhoneType": "BUSINESS", "Latitude": null, "Longitude": null, "SICCode": "80110000,80310000", "SICDesc": "OFFICES AND CLINICS OF MEDICAL DOCTORS,OFFICES AND CLINICS OF OSTEOPATHIC PHYSICIANS", "QualityScore": "MED"}}, "SMSAddress": null, "MMSAddress": null, "DateFirstSeen": null, "DateOfPorting": null, "NoteCodes": "2", "NoteDescriptions": "IsConnected", "TokensUsed": "65"}}}, {"PhoneInfoResponse": {"@xmlns": "http://www.serviceobjects.com", "@xmlns:i": "http://www.w3.org/2001/XMLSchema-instance", "PhoneInfo": {"Provider": {"Name": "VERIZON PENNSYLVANIA", "City": "PITTSBURGH", "State": "PENNSYLVANIA", "Latitude": "40.4473", "Longitude": "-79.9934", "LineType": "LANDLINE"}, "Contacts": {"Contact": {"Name": "NARAYANAN KRISHNA MD", "Address": "8400 PERRY HWY", "City": "PITTSBURGH", "State": "PA", "PostalCode": "15237-5235", "PhoneType": "BUSINESS", "Latitude": "40.559708", "Longitude": "-80.039586", "SICCode": null, "SICDesc": null, "QualityScore": "LOW"}}, "SMSAddress": null, "MMSAddress": null, "DateFirstSeen": null, "DateOfPorting": null, "NoteCodes": "1,10,905", "NoteDescriptions": "IsMailable,IsPossibleDisconnected,INF", "TokensUsed": "65"}}}, {"PhoneInfoResponse": {"@xmlns": "http://www.serviceobjects.com", "@xmlns:i": "http://www.w3.org/2001/XMLSchema-instance", "PhoneInfo": {"Provider": {"Name": "WINDSTREAM OHIO, LLC", "City": "COLUMBIA STATION", "State": "OHIO", "Latitude": "41.3127", "Longitude": "-81.9356", "LineType": "LANDLINE"}, "Contacts": {"Contact": {"Name": "PHYSICIANS EDGE", "Address": "10184 SANDSTONE TRL", "City": "COLUMBIA STATION", "State": "OH", "PostalCode": "44028-9823", "PhoneType": "BUSINESS", "Latitude": null, "Longitude": null, "SICCode": null, "SICDesc": null, "QualityScore": "LOW"}}, "SMSAddress": null, "MMSAddress": null, "DateFirstSeen": null, "DateOfPorting": null, "NoteCodes": "1,10,905", "NoteDescriptions": "IsMailable,IsPossibleDisconnected,INF", "TokensUsed": "65"}}}, {"PhoneInfoResponse": {"@xmlns": "http://www.serviceobjects.com", "@xmlns:i": "http://www.w3.org/2001/XMLSchema-instance", "PhoneInfo": {"Provider": {"Name": "QWEST CORPORATION", "City": "TUCSON", "State": "ARIZONA", "Latitude": "32.2137", "Longitude": "-110.959", "LineType": "LANDLINE"}, "Contacts": {"Contact": {"Name": "MATTHEW TROUARD", "Address": "2026 E KLEINDALE RD", "City": "TUCSON", "State": "AZ", "PostalCode": "85719-2439", "PhoneType": "RESIDENTIAL", "Latitude": "32.268525", "Longitude": "-110.940297", "SICCode": null, "SICDesc": null, "QualityScore": "HIGH"}}, "SMSAddress": null, "MMSAddress": null, "DateFirstSeen": null, "DateOfPorting": null, "NoteCodes": "1,2", "NoteDescriptions": "IsMailable,IsConnected", "TokensUsed": "65"}}}, {"PhoneInfoResponse": {"@xmlns": "http://www.serviceobjects.com", "@xmlns:i": "http://www.w3.org/2001/XMLSchema-instance", "PhoneInfo": {"Provider": {"Name": "FRONTIER CALIFORNIA", "City": "PALM SPRINGS", "State": "CALIFORNIA", "Latitude": "33.8394", "Longitude": "-116.552", "LineType": "LANDLINE"}, "Contacts": {"Contact": {"Name": "FRAGEN RONALD A MD A MEDICAL CORP", "Address": "1900 E TAHQUITZ CANYON WAY STE A2", "City": "PALM SPRINGS", "State": "CA", "PostalCode": "92262-7060", "PhoneType": "BUSINESS", "Latitude": "33.823218", "Longitude": "-116.525272", "SICCode": "80110000", "SICDesc": "OFFICES AND CLINICS OF MEDICAL DOCTORS", "QualityScore": "HIGH"}}, "SMSAddress": null, "MMSAddress": null, "DateFirstSeen": null, "DateOfPorting": null, "NoteCodes": "1,2", "NoteDescriptions": "IsMailable,IsConnected", "TokensUsed": "65"}}}, {"PhoneInfoResponse": {"@xmlns": "http://www.serviceobjects.com", "@xmlns:i": "http://www.w3.org/2001/XMLSchema-instance", "PhoneInfo": {"Provider": {"Name": "FRONTIER UTIL RURAL", "City": "KINGMAN", "State": "ARIZONA", "Latitude": "35.4437", "Longitude": "-114.011", "LineType": "LANDLINE"}, "Contacts": {"Contact": {"Name": "JOE DR GOCHOCO PLLC", "Address": "2002 N STOCKTON HILL RD STE 102", "City": "KINGMAN", "State": "AZ", "PostalCode": "86401-4698", "PhoneType": "BUSINESS", "Latitude": "35.205472", "Longitude": "-114.034068", "SICCode": "80110000,80990000", "SICDesc": "OFFICES AND CLINICS OF MEDICAL DOCTORS,HEALTH AND ALLIED SERVICES, NEC", "QualityScore": "HIGH"}}, "SMSAddress": null, "MMSAddress": null, "DateFirstSeen": null, "DateOfPorting": null, "NoteCodes": "1,2", "NoteDescriptions": "IsMailable,IsConnected", "TokensUsed": "65"}}}, {"PhoneInfoResponse": {"@xmlns": "http://www.serviceobjects.com", "@xmlns:i": "http://www.w3.org/2001/XMLSchema-instance", "PhoneInfo": {"Provider": {"Name": "FRONTIER COMM OF FL", "City": "VENICE", "State": "FLORIDA", "Latitude": "27.0705", "Longitude": "-82.4159", "LineType": "LANDLINE"}, "Contacts": {"Contact": {"Name": "DONALD A MCEACHERN", "Address": "1511 TAMIAMI TRL S STE 201", "City": "VENICE", "State": "FL", "PostalCode": "34285-5578", "PhoneType": "RESIDENTIAL", "Latitude": null, "Longitude": null, "SICCode": null, "SICDesc": null, "QualityScore": "LOW"}}, "SMSAddress": null, "MMSAddress": null, "DateFirstSeen": null, "DateOfPorting": null, "NoteCodes": "1,10,905", "NoteDescriptions": "IsMailable,IsPossibleDisconnected,INF", "TokensUsed": "65"}}}, {"PhoneInfoResponse": {"@xmlns": "http://www.serviceobjects.com", "@xmlns:i": "http://www.w3.org/2001/XMLSchema-instance", "PhoneInfo": {"Provider": {"Name": "FRONTIER COMM OF TX", "City": "IRVING", "State": "TEXAS", "Latitude": "32.8599", "Longitude": "-96.9644", "LineType": "LANDLINE"}, "Contacts": {"Contact": {"Name": "ADAPT OF TEXAS", "Address": "800 W AIRPORT FWY", "City": "IRVING", "State": "TX", "PostalCode": "75062-6312", "PhoneType": "BUSINESS", "Latitude": null, "Longitude": null, "SICCode": null, "SICDesc": null, "QualityScore": "LOW"}}, "SMSAddress": null, "MMSAddress": null, "DateFirstSeen": null, "DateOfPorting": null, "NoteCodes": "1,10,905", "NoteDescriptions": "IsMailable,IsPossibleDisconnected,INF", "TokensUsed": "65"}}}, {"PhoneInfoResponse": {"@xmlns": "http://www.serviceobjects.com", "@xmlns:i": "http://www.w3.org/2001/XMLSchema-instance", "PhoneInfo": {"Provider": {"Name": "AMERITECH ILLINOIS", "City": "HINSDALE", "State": "ILLINOIS", "Latitude": "41.8189", "Longitude": "-87.9288", "LineType": "LANDLINE"}, "Contacts": {"Contact": {"Name": "SAEED M AWAN", "Address": "1020 OAKWOOD DR", "City": "WESTMONT", "State": "IL", "PostalCode": "60559-1040", "PhoneType": "RESIDENTIAL", "Latitude": "41.819533", "Longitude": "-87.965322", "SICCode": null, "SICDesc": null, "QualityScore": "LOW"}}, "SMSAddress": null, "MMSAddress": null, "DateFirstSeen": null, "DateOfPorting": null, "NoteCodes": "1,10,905", "NoteDescriptions": "IsMailable,IsPossibleDisconnected,INF", "TokensUsed": "65"}}}, {"PhoneInfoResponse": {"@xmlns": "http://www.serviceobjects.com", "@xmlns:i": "http://www.w3.org/2001/XMLSchema-instance", "PhoneInfo": {"Provider": {"Name": "VERIZON NEW YORK INC", "City": "SYRACUSE", "State": "NEW YORK", "Latitude": "43.0587", "Longitude": "-76.1504", "LineType": "LANDLINE"}, "Contacts": {"Contact": {"Name": "CNY CHILD NEUROLOGY ASSOCIATES PHYSICIANS SURGEONS", "Address": "5850 HERITAGE LANDING DR", "City": "EAST SYRACUSE", "State": "NY", "PostalCode": "13057-9359", "PhoneType": "BUSINESS", "Latitude": "43.048309", "Longitude": "-76.049943", "SICCode": "80110000", "SICDesc": "OFFICES AND CLINICS OF MEDICAL DOCTORS", "QualityScore": "HIGH"}}, "SMSAddress": null, "MMSAddress": null, "DateFirstSeen": null, "DateOfPorting": null, "NoteCodes": "1,2", "NoteDescriptions": "IsMailable,IsConnected", "TokensUsed": "65"}}}, {"PhoneInfoResponse": {"@xmlns": "http://www.serviceobjects.com", "@xmlns:i": "http://www.w3.org/2001/XMLSchema-instance", "PhoneInfo": {"Provider": {"Name": "MIDCONTINENT COM-KS.", "City": "LAWRENCE", "State": "KANSAS", "Latitude": "38.9564", "Longitude": "-95.2689", "LineType": "LANDLINE"}, "Contacts": {"Contact": {"Name": "REED MEDICAL GROUP", "Address": "404 MAINE ST", "City": "LAWRENCE", "State": "KS", "PostalCode": "66044-1361", "PhoneType": "BUSINESS", "Latitude": "38.975989", "Longitude": "-95.247591", "SICCode": "80110000,80110102", "SICDesc": "OFFICES AND CLINICS OF MEDICAL DOCTORS,ENDOCRINOLOGIST", "QualityScore": "LOW"}}, "SMSAddress": null, "MMSAddress": null, "DateFirstSeen": null, "DateOfPorting": "2014-05-16", "NoteCodes": "1,3,10,905", "NoteDescriptions": "IsMailable,IsPorted,IsPossibleDisconnected,INF", "TokensUsed": "65"}}}, {"PhoneInfoResponse": {"@xmlns": "http://www.serviceobjects.com", "@xmlns:i": "http://www.w3.org/2001/XMLSchema-instance", "PhoneInfo": {"Provider": {"Name": "SOUTHWESTERN BELL", "City": "TAHLEQUAH", "State": "OKLAHOMA", "Latitude": "35.9083", "Longitude": "-94.9766", "LineType": "LANDLINE"}, "Contacts": {"Contact": {"Name": "LEE STRATTON", "Address": "900 W FOX ST", "City": "TAHLEQUAH", "State": "OK", "PostalCode": "74464-4262", "PhoneType": "RESIDENTIAL", "Latitude": "35.908029", "Longitude": "-94.983141", "SICCode": null, "SICDesc": null, "QualityScore": "LOW"}}, "SMSAddress": null, "MMSAddress": null, "DateFirstSeen": null, "DateOfPorting": null, "NoteCodes": "1", "NoteDescriptions": "IsMailable", "TokensUsed": "65"}}}, {"PhoneInfoResponse": {"@xmlns": "http://www.serviceobjects.com", "@xmlns:i": "http://www.w3.org/2001/XMLSchema-instance", "PhoneInfo": {"Provider": {"Name": "PACIFIC BELL", "City": "UKIAH", "State": "CALIFORNIA", "Latitude": "39.1528", "Longitude": "-123.203", "LineType": "LANDLINE"}, "Contacts": {"Contact": {"Name": "GILBREATH & PARK", "Address": "102 SCOTT ST", "City": "UKIAH", "State": "CA", "PostalCode": "95482-4316", "PhoneType": "BUSINESS", "Latitude": "39.153600", "Longitude": "-123.208857", "SICCode": "80420000", "SICDesc": "OFFICES AND CLINICS OF OPTOMETRISTS", "QualityScore": "LOW"}}, "SMSAddress": null, "MMSAddress": null, "DateFirstSeen": null, "DateOfPorting": null, "NoteCodes": "1,10,905", "NoteDescriptions": "IsMailable,IsPossibleDisconnected,INF", "TokensUsed": "65"}}}, {"PhoneInfoResponse": {"@xmlns": "http://www.serviceobjects.com", "@xmlns:i": "http://www.w3.org/2001/XMLSchema-instance", "PhoneInfo": {"Provider": {"Name": "PACIFIC BELL", "City": "ORANGE", "State": "CALIFORNIA", "Latitude": "33.8046", "Longitude": "-117.826", "LineType": "LANDLINE"}, "Contacts": {"Contact": {"Name": "SUSAN NAKAMURA", "Address": "810 E 21ST ST", "City": "SANTA ANA", "State": "CA", "PostalCode": "92706-3023", "PhoneType": "RESIDENTIAL", "Latitude": null, "Longitude": null, "SICCode": null, "SICDesc": null, "QualityScore": "LOW"}}, "SMSAddress": null, "MMSAddress": null, "DateFirstSeen": null, "DateOfPorting": null, "NoteCodes": "1", "NoteDescriptions": "IsMailable", "TokensUsed": "65"}}}, {"PhoneInfoResponse": {"@xmlns": "http://www.serviceobjects.com", "@xmlns:i": "http://www.w3.org/2001/XMLSchema-instance", "PhoneInfo": {"Provider": {"Name": "SOUTHWESTERN BELL", "City": "SAN ANTONIO", "State": "TEXAS", "Latitude": "29.4731", "Longitude": "-98.505", "LineType": "LANDLINE"}, "Contacts": {"Contact": {"Name": "ALLERGY ASSOCIATES-SN ANTONIO", "Address": null, "City": null, "State": null, "PostalCode": null, "PhoneType": "UNKNOWN", "Latitude": null, "Longitude": null, "SICCode": null, "SICDesc": null, "QualityScore": "MED"}}, "SMSAddress": null, "MMSAddress": null, "DateFirstSeen": null, "DateOfPorting": null, "NoteCodes": null, "NoteDescriptions": null, "TokensUsed": "35"}}}, {"PhoneInfoResponse": {"@xmlns": "http://www.serviceobjects.com", "@xmlns:i": "http://www.w3.org/2001/XMLSchema-instance", "PhoneInfo": {"Provider": {"Name": "QWEST CORPORATION", "City": "BELLEVUE", "State": "WASHINGTON", "Latitude": "47.6018", "Longitude": "-122.178", "LineType": "LANDLINE"}, "Contacts": {"Contact": {"Name": "GAN FAMILY PRACTICE DR PHYSICIANS SURGEONS", "Address": "1811 156TH AVE NE STE 5", "City": "BELLEVUE", "State": "WA", "PostalCode": "98007-4344", "PhoneType": "BUSINESS", "Latitude": "47.627144", "Longitude": "-122.132154", "SICCode": null, "SICDesc": null, "QualityScore": "LOW"}}, "SMSAddress": null, "MMSAddress": null, "DateFirstSeen": null, "DateOfPorting": null, "NoteCodes": "1,10,905", "NoteDescriptions": "IsMailable,IsPossibleDisconnected,INF", "TokensUsed": "65"}}}, {"PhoneInfoResponse": {"@xmlns": "http://www.serviceobjects.com", "@xmlns:i": "http://www.w3.org/2001/XMLSchema-instance", "PhoneInfo": {"Provider": {"Name": "ALLSTREAM - OR", "City": "PORTLAND", "State": "OREGON", "Latitude": "45.5018", "Longitude": "-122.667", "LineType": "LANDLINE"}, "Contacts": {"Contact": {"Name": "AETHENA GYNECOLOGY ASSOCIATES PHYSICIANS SURGEONS", "Address": "1498 SE TECH CENTER PL STE 100", "City": "VANCOUVER", "State": "WA", "PostalCode": "98683-5508", "PhoneType": "BUSINESS", "Latitude": null, "Longitude": null, "SICCode": "80110200", "SICDesc": "MEDICAL CENTERS", "QualityScore": "HIGH"}}, "SMSAddress": null, "MMSAddress": null, "DateFirstSeen": null, "DateOfPorting": "2011-02-19", "NoteCodes": "1,2,3", "NoteDescriptions": "IsMailable,IsConnected,IsPorted", "TokensUsed": "65"}}}, {"PhoneInfoResponse": {"@xmlns": "http://www.serviceobjects.com", "@xmlns:i": "http://www.w3.org/2001/XMLSchema-instance", "PhoneInfo": {"Provider": {"Name": "BELLSOUTH SO CNTL", "City": "DECATUR", "State": "ALABAMA", "Latitude": "34.5854", "Longitude": "-86.9984", "LineType": "LANDLINE"}, "Contacts": {"Contact": {"Name": "ANESTHESIA SERV", "Address": "1900 FLINT RD SE", "City": "DECATUR", "State": "AL", "PostalCode": "35601-6031", "PhoneType": "BUSINESS", "Latitude": "34.575032", "Longitude": "-86.973688", "SICCode": null, "SICDesc": null, "QualityScore": "LOW"}}, "SMSAddress": null, "MMSAddress": null, "DateFirstSeen": null, "DateOfPorting": null, "NoteCodes": "1,10,905", "NoteDescriptions": "IsMailable,IsPossibleDisconnected,INF", "TokensUsed": "65"}}}, {"PhoneInfoResponse": {"@xmlns": "http://www.serviceobjects.com", "@xmlns:i": "http://www.w3.org/2001/XMLSchema-instance", "PhoneInfo": {"Provider": {"Name": "CAVALIER TELEPHONE", "City": "NORFOLK", "State": "VIRGINIA", "Latitude": "36.8947", "Longitude": "-76.2727", "LineType": "LANDLINE"}, "SMSAddress": null, "MMSAddress": null, "DateFirstSeen": null, "DateOfPorting": "2008-06-09", "NoteCodes": "3,5", "NoteDescriptions": "IsPorted,IsUnknownContact", "TokensUsed": "35"}}}, {"PhoneInfoResponse": {"@xmlns": "http://www.serviceobjects.com", "@xmlns:i": "http://www.w3.org/2001/XMLSchema-instance", "PhoneInfo": {"Provider": {"Name": "MCLEODUSA TEL - UT", "City": "SALT LAKE CITY", "State": "UTAH", "Latitude": "40.7135", "Longitude": "-111.899", "LineType": "LANDLINE"}, "Contacts": {"Contact": {"Name": "ALTA VIEW EYE CARE CENTER", "Address": "9720 S 1300 E STE E210", "City": "SANDY", "State": "UT", "PostalCode": "84094-3779", "PhoneType": "BUSINESS", "Latitude": "40.574800", "Longitude": "-111.853253", "SICCode": "80110000,80420000", "SICDesc": "OFFICES AND CLINICS OF MEDICAL DOCTORS,OFFICES AND CLINICS OF OPTOMETRISTS", "QualityScore": "LOW"}}, "SMSAddress": null, "MMSAddress": null, "DateFirstSeen": null, "DateOfPorting": "2001-12-21", "NoteCodes": "1,3", "NoteDescriptions": "IsMailable,IsPorted", "TokensUsed": "65"}}}, {"PhoneInfoResponse": {"@xmlns": "http://www.serviceobjects.com", "@xmlns:i": "http://www.w3.org/2001/XMLSchema-instance", "PhoneInfo": {"Provider": {"Name": "WINDSTREAM KY-LXGTN", "City": "LEXINGTON", "State": "KENTUCKY", "Latitude": "38.055", "Longitude": "-84.496", "LineType": "LANDLINE"}, "Contacts": {"Contact": {"Name": "UNIVERSITY OF KENTUCKY HOSPITAL WILSON EMERY A", "Address": null, "City": "LEXINGTON", "State": "KY", "PostalCode": "40502", "PhoneType": "BUSINESS", "Latitude": null, "Longitude": null, "SICCode": "80110000,82210000", "SICDesc": "OFFICES AND CLINICS OF MEDICAL DOCTORS,COLLEGES AND UNIVERSITIES", "QualityScore": "HIGH"}}, "SMSAddress": null, "MMSAddress": null, "DateFirstSeen": null, "DateOfPorting": null, "NoteCodes": "2", "NoteDescriptions": "IsConnected", "TokensUsed": "65"}}}, {"PhoneInfoResponse": {"@xmlns": "http://www.serviceobjects.com", "@xmlns:i": "http://www.w3.org/2001/XMLSchema-instance", "PhoneInfo": {"Provider": {"Name": "AMERITECH ILLINOIS", "City": "CHAMPAIGN", "State": "ILLINOIS", "Latitude": "40.1201", "Longitude": "-88.2675", "LineType": "LANDLINE"}, "Contacts": {"Contact": {"Name": "CARLE CLINIC ASSOCIATION", "Address": null, "City": "CHAMPAIGN", "State": "IL", "PostalCode": "61820", "PhoneType": "BUSINESS", "Latitude": null, "Longitude": null, "SICCode": null, "SICDesc": null, "QualityScore": "MED"}}, "SMSAddress": null, "MMSAddress": null, "DateFirstSeen": null, "DateOfPorting": null, "NoteCodes": "2", "NoteDescriptions": "IsConnected", "TokensUsed": "65"}}}, {"PhoneInfoResponse": {"@xmlns": "http://www.serviceobjects.com", "@xmlns:i": "http://www.w3.org/2001/XMLSchema-instance", "PhoneInfo": {"Provider": {"Name": "CABLEVSN LGHTPATH CT", "City": "RIDGEFIELD", "State": "CONNECTICUT", "Latitude": "41.2817", "Longitude": "-73.4996", "LineType": "LANDLINE"}, "Contacts": {"Contact": {"Name": "ANTON V CHINNIAH N MD PHYSICIANS SURGEONS", "Address": "1450 BARNUM AVE STE 105", "City": "BRIDGEPORT", "State": "CT", "PostalCode": "06610-3273", "PhoneType": "BUSINESS", "Latitude": null, "Longitude": null, "SICCode": null, "SICDesc": null, "QualityScore": "HIGH"}}, "SMSAddress": null, "MMSAddress": null, "DateFirstSeen": null, "DateOfPorting": "2016-09-09", "NoteCodes": "1,2,3", "NoteDescriptions": "IsMailable,IsConnected,IsPorted", "TokensUsed": "65"}}}, {"PhoneInfoResponse": {"@xmlns": "http://www.serviceobjects.com", "@xmlns:i": "http://www.w3.org/2001/XMLSchema-instance", "PhoneInfo": {"Provider": {"Name": "PACIFIC BELL", "City": "DEL MAR", "State": "CALIFORNIA", "Latitude": "32.9619", "Longitude": "-117.233", "LineType": "LANDLINE"}, "Contacts": {"Contact": {"Name": "STEVEN Y PARK", "Address": "12501 EL CAMINO REAL UNIT D", "City": "SAN DIEGO", "State": "CA", "PostalCode": "92130-4006", "PhoneType": "RESIDENTIAL", "Latitude": null, "Longitude": null, "SICCode": null, "SICDesc": null, "QualityScore": "LOW"}}, "SMSAddress": null, "MMSAddress": null, "DateFirstSeen": null, "DateOfPorting": null, "NoteCodes": "1", "NoteDescriptions": "IsMailable", "TokensUsed": "65"}}}, {"PhoneInfoResponse": {"@xmlns": "http://www.serviceobjects.com", "@xmlns:i": "http://www.w3.org/2001/XMLSchema-instance", "PhoneInfo": {"Provider": {"Name": "AMERITECH INDIANA", "City": "COLUMBUS", "State": "INDIANA", "Latitude": "39.2129", "Longitude": "-85.9094", "LineType": "LANDLINE"}, "Contacts": {"Contact": {"Name": "VASCULAR PARTNERS PHYSICIANS SURGEONS", "Address": "4001 W GOELLER BLVD STE A", "City": "COLUMBUS", "State": "IN", "PostalCode": "47201-8309", "PhoneType": "BUSINESS", "Latitude": null, "Longitude": null, "SICCode": "80110000", "SICDesc": "OFFICES AND CLINICS OF MEDICAL DOCTORS", "QualityScore": "HIGH"}}, "SMSAddress": null, "MMSAddress": null, "DateFirstSeen": null, "DateOfPorting": null, "NoteCodes": "1,2", "NoteDescriptions": "IsMailable,IsConnected", "TokensUsed": "65"}}}, {"PhoneInfoResponse": {"@xmlns": "http://www.serviceobjects.com", "@xmlns:i": "http://www.w3.org/2001/XMLSchema-instance", "PhoneInfo": {"Provider": {"Name": "VERIZON NEW YORK INC", "City": "NEW YORK CITY", "State": "NEW YORK", "Latitude": "40.7", "Longitude": "-74", "LineType": "LANDLINE"}, "Contacts": {"Contact": {"Name": "COYNE JOHN A MD OFC PHYSICIANS SURGEONS", "Address": "409 E 14TH ST STE D", "City": "NEW YORK", "State": "NY", "PostalCode": "10009-2706", "PhoneType": "BUSINESS", "Latitude": "40.730905", "Longitude": "-73.981451", "SICCode": null, "SICDesc": null, "QualityScore": "HIGH"}}, "SMSAddress": null, "MMSAddress": null, "DateFirstSeen": null, "DateOfPorting": null, "NoteCodes": "1,2", "NoteDescriptions": "IsMailable,IsConnected", "TokensUsed": "65"}}}, {"PhoneInfoResponse": {"@xmlns": "http://www.serviceobjects.com", "@xmlns:i": "http://www.w3.org/2001/XMLSchema-instance", "PhoneInfo": {"Provider": {"Name": "PACIFIC BELL", "City": "MARTINEZ", "State": "CALIFORNIA", "Latitude": "37.9913", "Longitude": "-122.164", "LineType": "LANDLINE"}, "Contacts": {"Contact": {"Name": "CONTRA COSTA COUNTY OF MEDICAL STAFF OFFICE", "Address": "2500 ALHAMBRA AVE", "City": "MARTINEZ", "State": "CA", "PostalCode": "94553-3156", "PhoneType": "BUSINESS", "Latitude": "38.005996", "Longitude": "-122.131226", "SICCode": null, "SICDesc": null, "QualityScore": "HIGH"}}, "SMSAddress": null, "MMSAddress": null, "DateFirstSeen": null, "DateOfPorting": null, "NoteCodes": "1,2", "NoteDescriptions": "IsMailable,IsConnected", "TokensUsed": "65"}}}, {"PhoneInfoResponse": {"@xmlns": "http://www.serviceobjects.com", "@xmlns:i": "http://www.w3.org/2001/XMLSchema-instance", "PhoneInfo": {"Provider": {"Name": "CABLEVSN LGHTPATH NJ", "City": "WEST MILFORD", "State": "NEW JERSEY", "Latitude": "41.0938", "Longitude": "-74.3702", "LineType": "LANDLINE"}, "Contacts": {"Contact": {"Name": "JACQUELINE BLANK DO PHYSICIANS SURGEONS", "Address": "150 N FINLEY AVE", "City": "BASKING RIDGE", "State": "NJ", "PostalCode": "07920-1686", "PhoneType": "BUSINESS", "Latitude": "40.712653", "Longitude": "-74.554303", "SICCode": "80110000,80310000", "SICDesc": "OFFICES AND CLINICS OF MEDICAL DOCTORS,OFFICES AND CLINICS OF OSTEOPATHIC PHYSICIANS", "QualityScore": "HIGH"}}, "SMSAddress": null, "MMSAddress": null, "DateFirstSeen": null, "DateOfPorting": "2016-09-27", "NoteCodes": "1,2,3", "NoteDescriptions": "IsMailable,IsConnected,IsPorted", "TokensUsed": "65"}}}, {"PhoneInfoResponse": {"@xmlns": "http://www.serviceobjects.com", "@xmlns:i": "http://www.w3.org/2001/XMLSchema-instance", "PhoneInfo": {"Provider": {"Name": "CENTURYLINK", "City": "NAPLES", "State": "FLORIDA", "Latitude": "26.1827", "Longitude": "-81.7284", "LineType": "LANDLINE"}, "Contacts": {"Contact": {"Name": "ANCHOR HEALTH CENTERS", "Address": null, "City": "NAPLES", "State": "FL", "PostalCode": "34103", "PhoneType": "BUSINESS", "Latitude": null, "Longitude": null, "SICCode": null, "SICDesc": null, "QualityScore": "MED"}}, "SMSAddress": null, "MMSAddress": null, "DateFirstSeen": null, "DateOfPorting": "2007-11-05", "NoteCodes": "2,3", "NoteDescriptions": "IsConnected,IsPorted", "TokensUsed": "65"}}}, {"PhoneInfoResponse": {"@xmlns": "http://www.serviceobjects.com", "@xmlns:i": "http://www.w3.org/2001/XMLSchema-instance", "PhoneInfo": {"Provider": {"Name": "SOUTHWESTERN BELL", "City": "GALVESTON", "State": "TEXAS", "Latitude": "29.2634", "Longitude": "-94.8595", "LineType": "LANDLINE"}, "Contacts": {"Contact": {"Name": "LANDRYS", "Address": null, "City": "GALVESTON", "State": "TX", "PostalCode": "77554", "PhoneType": null, "Latitude": null, "Longitude": null, "SICCode": null, "SICDesc": null, "QualityScore": "LOW"}}, "SMSAddress": null, "MMSAddress": null, "DateFirstSeen": null, "DateOfPorting": null, "NoteCodes": "10,905", "NoteDescriptions": "IsPossibleDisconnected,INF", "TokensUsed": "65"}}}, {"PhoneInfoResponse": {"@xmlns": "http://www.serviceobjects.com", "@xmlns:i": "http://www.w3.org/2001/XMLSchema-instance", "PhoneInfo": {"Provider": {"Name": "PACIFIC BELL", "City": "FRESNO", "State": "CALIFORNIA", "Latitude": "36.7639", "Longitude": "-119.785", "LineType": "LANDLINE"}, "Contacts": {"Contact": {"Name": "TAT S RITHAPORN", "Address": "1735 N FRESNO ST", "City": "FRESNO", "State": "CA", "PostalCode": "93703-3031", "PhoneType": "RESIDENTIAL", "Latitude": "36.766299", "Longitude": "-119.781528", "SICCode": "80110000", "SICDesc": "OFFICES AND CLINICS OF MEDICAL DOCTORS", "QualityScore": "LOW"}}, "SMSAddress": null, "MMSAddress": null, "DateFirstSeen": null, "DateOfPorting": null, "NoteCodes": "1", "NoteDescriptions": "IsMailable", "TokensUsed": "65"}}}, {"PhoneInfoResponse": {"@xmlns": "http://www.serviceobjects.com", "@xmlns:i": "http://www.w3.org/2001/XMLSchema-instance", "PhoneInfo": {"Provider": {"Name": "QWEST CORPORATION", "City": "NEW BRIGHTON", "State": "MINNESOTA", "Latitude": "45.06324", "Longitude": "-93.1931", "LineType": "LANDLINE"}, "Contacts": {"Contact": {"Name": "TWIN CITIES,MN", "Address": null, "City": null, "State": null, "PostalCode": null, "PhoneType": "BUSINESS", "Latitude": null, "Longitude": null, "SICCode": null, "SICDesc": null, "QualityScore": "MED"}}, "SMSAddress": null, "MMSAddress": null, "DateFirstSeen": null, "DateOfPorting": null, "NoteCodes": "2", "NoteDescriptions": "IsConnected", "TokensUsed": "65"}}}, {"PhoneInfoResponse": {"@xmlns": "http://www.serviceobjects.com", "@xmlns:i": "http://www.w3.org/2001/XMLSchema-instance", "PhoneInfo": {"Provider": {"Name": "VERIZON NEW YORK INC", "City": "MANHASSET", "State": "NEW YORK", "Latitude": "40.7974", "Longitude": "-73.6844", "LineType": "LANDLINE"}, "Contacts": {"Contact": {"Name": "HERBERT NORTON", "Address": "331 PO BOX", "City": "ROSLYN", "State": "NY", "PostalCode": "11576-0331", "PhoneType": "RESIDENTIAL", "Latitude": null, "Longitude": null, "SICCode": null, "SICDesc": null, "QualityScore": "LOW"}}, "SMSAddress": null, "MMSAddress": null, "DateFirstSeen": null, "DateOfPorting": null, "NoteCodes": "1,10,905", "NoteDescriptions": "IsMailable,IsPossibleDisconnected,INF", "TokensUsed": "65"}}}, {"PhoneInfoResponse": {"@xmlns": "http://www.serviceobjects.com", "@xmlns:i": "http://www.w3.org/2001/XMLSchema-instance", "PhoneInfo": {"Provider": {"Name": "VERIZON NEW JERSEY", "City": "WENONAH", "State": "NEW JERSEY", "Latitude": "39.7975", "Longitude": "-75.1475", "LineType": "LANDLINE"}, "Contacts": {"Contact": {"Name": "JENNIFER L LIAO MD PHYSICIANS GENERAL", "Address": "1050 MANTUA PIKE", "City": "WENONAH", "State": "NJ", "PostalCode": "08090-1141", "PhoneType": "BUSINESS", "Latitude": "39.806359", "Longitude": "-75.167536", "SICCode": "80110000,80310000", "SICDesc": "OFFICES AND CLINICS OF MEDICAL DOCTORS,OFFICES AND CLINICS OF OSTEOPATHIC PHYSICIANS", "QualityScore": "HIGH"}}, "SMSAddress": null, "MMSAddress": null, "DateFirstSeen": null, "DateOfPorting": null, "NoteCodes": "1,2", "NoteDescriptions": "IsMailable,IsConnected", "TokensUsed": "65"}}}, {"PhoneInfoResponse": {"@xmlns": "http://www.serviceobjects.com", "@xmlns:i": "http://www.w3.org/2001/XMLSchema-instance", "PhoneInfo": {"Provider": {"Name": "SOUTHWESTERN BELL", "City": "SAN ANTONIO", "State": "TEXAS", "Latitude": "29.4731", "Longitude": "-98.505", "LineType": "LANDLINE"}, "Contacts": {"Contact": {"Name": "SHAVANO PARK CLINIC HOSPITAL MEDICAL CENTER TRAUMA", "Address": "4118 POND SHAVANO PARK", "City": "SHAVANO PARK", "State": "TX", "PostalCode": "78231", "PhoneType": "BUSINESS", "Latitude": null, "Longitude": null, "SICCode": null, "SICDesc": null, "QualityScore": "HIGH"}}, "SMSAddress": null, "MMSAddress": null, "DateFirstSeen": null, "DateOfPorting": null, "NoteCodes": "2", "NoteDescriptions": "IsConnected", "TokensUsed": "65"}}}, {"PhoneInfoResponse": {"@xmlns": "http://www.serviceobjects.com", "@xmlns:i": "http://www.w3.org/2001/XMLSchema-instance", "PhoneInfo": {"Provider": {"Name": "PACIFIC BELL", "City": "LOS ANGELES", "State": "CALIFORNIA", "Latitude": "34.0359", "Longitude": "-118.297", "LineType": "LANDLINE"}, "Contacts": {"Contact": {"Name": "LEE JULIANNE O MD", "Address": "711 N ALVARADO ST STE 106", "City": "LOS ANGELES", "State": "CA", "PostalCode": "90026-4016", "PhoneType": "BUSINESS", "Latitude": "34.074410", "Longitude": "-118.265532", "SICCode": "80110300,80110000,80310000", "SICDesc": "MEDICAL INSURANCE ASSOCIATIONS,OFFICES AND CLINICS OF MEDICAL DOCTORS,OFFICES AND CLINICS OF OSTEOPATHIC PHYSICIANS", "QualityScore": "LOW"}}, "SMSAddress": null, "MMSAddress": null, "DateFirstSeen": null, "DateOfPorting": null, "NoteCodes": "1,10,905", "NoteDescriptions": "IsMailable,IsPossibleDisconnected,INF", "TokensUsed": "65"}}}, {"PhoneInfoResponse": {"@xmlns": "http://www.serviceobjects.com", "@xmlns:i": "http://www.w3.org/2001/XMLSchema-instance", "PhoneInfo": {"Provider": {"Name": "SOUTHWESTERN BELL", "City": "FORT WORTH", "State": "TEXAS", "Latitude": "32.7636", "Longitude": "-97.3462", "LineType": "LANDLINE"}, "Contacts": {"Contact": {"Name": "JOSE IGLESIAS", "Address": "3525 DOROTHY LN S", "City": "FORT WORTH", "State": "TX", "PostalCode": "76107-1731", "PhoneType": "RESIDENTIAL", "Latitude": "32.758409", "Longitude": "-97.370486", "SICCode": null, "SICDesc": null, "QualityScore": "LOW"}}, "SMSAddress": null, "MMSAddress": null, "DateFirstSeen": null, "DateOfPorting": null, "NoteCodes": "1", "NoteDescriptions": "IsMailable", "TokensUsed": "65"}}}, {"PhoneInfoResponse": {"@xmlns": "http://www.serviceobjects.com", "@xmlns:i": "http://www.w3.org/2001/XMLSchema-instance", "PhoneInfo": {"Provider": {"Name": "VERIZON MARYLAND INC", "City": "BALTIMORE", "State": "MARYLAND", "Latitude": "39.3157", "Longitude": "-76.6278", "LineType": "LANDLINE"}, "SMSAddress": null, "MMSAddress": null, "DateFirstSeen": null, "DateOfPorting": null, "NoteCodes": "5", "NoteDescriptions": "IsUnknownContact", "TokensUsed": "35"}}}, {"PhoneInfoResponse": {"@xmlns": "http://www.serviceobjects.com", "@xmlns:i": "http://www.w3.org/2001/XMLSchema-instance", "PhoneInfo": {"Provider": {"Name": "SOUTHWESTERN BELL", "City": "CORPUS CHRISTI", "State": "TEXAS", "Latitude": "27.7667", "Longitude": "-97.412", "LineType": "LANDLINE"}, "Contacts": {"Contact": {"Name": "SANDOVAL JAIME DAVID", "Address": "1301 SANTA FE ST", "City": "CORPUS CHRISTI", "State": "TX", "PostalCode": "78404-2213", "PhoneType": "BUSINESS", "Latitude": "27.778020", "Longitude": "-97.397368", "SICCode": "80110000", "SICDesc": "OFFICES AND CLINICS OF MEDICAL DOCTORS", "QualityScore": "LOW"}}, "SMSAddress": null, "MMSAddress": null, "DateFirstSeen": null, "DateOfPorting": null, "NoteCodes": "1", "NoteDescriptions": "IsMailable", "TokensUsed": "65"}}}, {"PhoneInfoResponse": {"@xmlns": "http://www.serviceobjects.com", "@xmlns:i": "http://www.w3.org/2001/XMLSchema-instance", "PhoneInfo": {"Provider": {"Name": "BELLSOUTH SO BELL", "City": "SAINT JOHNS", "State": "FLORIDA", "Latitude": "30.1219", "Longitude": "-81.6257", "LineType": "LANDLINE"}, "Contacts": {"Contact": {"Name": "DIEGUEZ EDWARD MD PA", "Address": "120 HEALTH PARK BLVD STE 4", "City": "SAINT AUGUSTINE", "State": "FL", "PostalCode": "32086-5798", "PhoneType": "BUSINESS", "Latitude": "29.862564", "Longitude": "-81.320797", "SICCode": "80110000", "SICDesc": "OFFICES AND CLINICS OF MEDICAL DOCTORS", "QualityScore": "HIGH"}}, "SMSAddress": null, "MMSAddress": null, "DateFirstSeen": null, "DateOfPorting": null, "NoteCodes": "1,2", "NoteDescriptions": "IsMailable,IsConnected", "TokensUsed": "65"}}}, {"PhoneInfoResponse": {"@xmlns": "http://www.serviceobjects.com", "@xmlns:i": "http://www.w3.org/2001/XMLSchema-instance", "PhoneInfo": {"Provider": {"Name": "FRONTIER COM NW - OR", "City": "HILLSBORO", "State": "OREGON", "Latitude": "45.5228", "Longitude": "-122.952", "LineType": "LANDLINE"}, "Contacts": {"Contact": {"Name": "SUSAN B KNOW MD LLC PHYSICIANS SURGEONS FAMILY", "Address": "5289 NE ELAM YOUNG PKWY STE 150", "City": "HILLSBORO", "State": "OR", "PostalCode": "97124-7551", "PhoneType": "BUSINESS", "Latitude": null, "Longitude": null, "SICCode": "80110000,80310000,80490000", "SICDesc": "OFFICES AND CLINICS OF MEDICAL DOCTORS,OFFICES AND CLINICS OF OSTEOPATHIC PHYSICIANS,OFFICES OF HEALTH PRACTITIONER", "QualityScore": "HIGH"}}, "SMSAddress": null, "MMSAddress": null, "DateFirstSeen": null, "DateOfPorting": null, "NoteCodes": "1,2", "NoteDescriptions": "IsMailable,IsConnected", "TokensUsed": "65"}}}, {"PhoneInfoResponse": {"@xmlns": "http://www.serviceobjects.com", "@xmlns:i": "http://www.w3.org/2001/XMLSchema-instance", "PhoneInfo": {"Provider": {"Name": "QWEST CORPORATION", "City": "PHOENIX", "State": "ARIZONA", "Latitude": "33.5177", "Longitude": "-112.075", "LineType": "LANDLINE"}, "Contacts": {"Contact": {"Name": "ARIZONA SPORT MEDICINE CONSULTANTS", "Address": "3119 E PUGET AVE", "City": "PHOENIX", "State": "AZ", "PostalCode": "85028-5328", "PhoneType": "BUSINESS", "Latitude": "33.567741", "Longitude": "-112.013253", "SICCode": null, "SICDesc": null, "QualityScore": "LOW"}}, "SMSAddress": null, "MMSAddress": null, "DateFirstSeen": null, "DateOfPorting": null, "NoteCodes": "1,10,905", "NoteDescriptions": "IsMailable,IsPossibleDisconnected,INF", "TokensUsed": "65"}}}, {"PhoneInfoResponse": {"@xmlns": "http://www.serviceobjects.com", "@xmlns:i": "http://www.w3.org/2001/XMLSchema-instance", "PhoneInfo": {"Provider": {"Name": "FRONTIER CALIFORNIA", "City": "UPLAND", "State": "CALIFORNIA", "Latitude": "34.1127", "Longitude": "-117.657", "LineType": "LANDLINE"}, "Contacts": {"Contact": {"Name": "SHAIKLEY MD INC", "Address": "1060 E FOOTHILL BLVD STE 102", "City": "UPLAND", "State": "CA", "PostalCode": "91786-4070", "PhoneType": "BUSINESS", "Latitude": "34.106203", "Longitude": "-117.638159", "SICCode": "80110000,80310000", "SICDesc": "OFFICES AND CLINICS OF MEDICAL DOCTORS,OFFICES AND CLINICS OF OSTEOPATHIC PHYSICIANS", "QualityScore": "LOW"}}, "SMSAddress": null, "MMSAddress": null, "DateFirstSeen": null, "DateOfPorting": null, "NoteCodes": "1,10,905", "NoteDescriptions": "IsMailable,IsPossibleDisconnected,INF", "TokensUsed": "65"}}}, {"PhoneInfoResponse": {"@xmlns": "http://www.serviceobjects.com", "@xmlns:i": "http://www.w3.org/2001/XMLSchema-instance", "PhoneInfo": {"Provider": {"Name": "FRONTIER COM NW - ID", "City": "COEUR D ALENE", "State": "IDAHO", "Latitude": "47.6957", "Longitude": "-116.783", "LineType": "LANDLINE"}, "Contacts": {"Contact": {"Name": "KOOTENAI MEDICA", "Address": "2003 KOOTENAI HEALTH WAY", "City": "COEUR D ALENE", "State": "ID", "PostalCode": "83814-6051", "PhoneType": "BUSINESS", "Latitude": null, "Longitude": null, "SICCode": null, "SICDesc": null, "QualityScore": "LOW"}}, "SMSAddress": null, "MMSAddress": null, "DateFirstSeen": null, "DateOfPorting": null, "NoteCodes": "1", "NoteDescriptions": "IsMailable", "TokensUsed": "65"}}}, {"PhoneInfoResponse": {"@xmlns": "http://www.serviceobjects.com", "@xmlns:i": "http://www.w3.org/2001/XMLSchema-instance", "PhoneInfo": {"Provider": {"Name": "SOUTHWESTERN BELL", "City": "HOUSTON", "State": "TEXAS", "Latitude": "29.7652", "Longitude": "-95.4071", "LineType": "LANDLINE"}, "Contacts": {"Contact": {"Name": "MCREYNOLDS EDWA", "Address": "1640 NORFOLK ST", "City": "HOUSTON", "State": "TX", "PostalCode": "77006-5229", "PhoneType": "BUSINESS", "Latitude": "29.732737", "Longitude": "-95.400809", "SICCode": "80110000", "SICDesc": "OFFICES AND CLINICS OF MEDICAL DOCTORS", "QualityScore": "LOW"}}, "SMSAddress": null, "MMSAddress": null, "DateFirstSeen": null, "DateOfPorting": null, "NoteCodes": "1,10,905", "NoteDescriptions": "IsMailable,IsPossibleDisconnected,INF", "TokensUsed": "65"}}}, {"PhoneInfoResponse": {"@xmlns": "http://www.serviceobjects.com", "@xmlns:i": "http://www.w3.org/2001/XMLSchema-instance", "PhoneInfo": {"Provider": {"Name": "VERIZON MARYLAND INC", "City": "BETHESDA", "State": "MARYLAND", "Latitude": "38.996", "Longitude": "-77.1127", "LineType": "LANDLINE"}, "Contacts": {"Contact": {"Name": "HLTH & HUMAN SV", "Address": null, "City": "GLEN ECHO", "State": "MD", "PostalCode": "20812", "PhoneType": "BUSINESS", "Latitude": null, "Longitude": null, "SICCode": null, "SICDesc": null, "QualityScore": "LOW"}}, "SMSAddress": null, "MMSAddress": null, "DateFirstSeen": null, "DateOfPorting": null, "NoteCodes": null, "NoteDescriptions": null, "TokensUsed": "65"}}}, {"PhoneInfoResponse": {"@xmlns": "http://www.serviceobjects.com", "@xmlns:i": "http://www.w3.org/2001/XMLSchema-instance", "PhoneInfo": {"Provider": {"Name": "FRONTIER CAROL - NC", "City": "DURHAM", "State": "NORTH CAROLINA", "Latitude": "35.9893", "Longitude": "-78.9108", "LineType": "LANDLINE"}, "Contacts": {"Contact": {"Name": "SERAFIN PLASTIC SURGERY", "Address": "511 RUIN CREEK RD STE 104", "City": "HENDERSON", "State": "NC", "PostalCode": "27536-5919", "PhoneType": "BUSINESS", "Latitude": null, "Longitude": null, "SICCode": "80110000", "SICDesc": "OFFICES AND CLINICS OF MEDICAL DOCTORS", "QualityScore": "LOW"}}, "SMSAddress": null, "MMSAddress": null, "DateFirstSeen": null, "DateOfPorting": null, "NoteCodes": "1,10,905", "NoteDescriptions": "IsMailable,IsPossibleDisconnected,INF", "TokensUsed": "65"}}}, {"PhoneInfoResponse": {"@xmlns": "http://www.serviceobjects.com", "@xmlns:i": "http://www.w3.org/2001/XMLSchema-instance", "PhoneInfo": {"Provider": {"Name": "VERIZON NEW ENGLAND", "City": "LYNN", "State": "MASSACHUSETTS", "Latitude": "42.4726", "Longitude": "-70.9597", "LineType": "LANDLINE"}, "Contacts": {"Contact": {"Name": "ALLERGY MEDICAL ASSOCIATES OF NORTH SHORE INC", "Address": "214 OCEAN ST", "City": "LYNN", "State": "MA", "PostalCode": "01902-3150", "PhoneType": "BUSINESS", "Latitude": "42.462131", "Longitude": "-70.932318", "SICCode": "80110400,80110000,80310000", "SICDesc": "PSYCHIATRISTS AND PSYCHOANALYSTS,OFFICES AND CLINICS OF MEDICAL DOCTORS,OFFICES AND CLINICS OF OSTEOPATHIC PHYSICIANS", "QualityScore": "HIGH"}}, "SMSAddress": null, "MMSAddress": null, "DateFirstSeen": null, "DateOfPorting": null, "NoteCodes": "1,2", "NoteDescriptions": "IsMailable,IsConnected", "TokensUsed": "65"}}}, {"PhoneInfoResponse": {"@xmlns": "http://www.serviceobjects.com", "@xmlns:i": "http://www.w3.org/2001/XMLSchema-instance", "PhoneInfo": {"Provider": {"Name": "BELLSOUTH SO BELL", "City": "HOLLYWOOD", "State": "FLORIDA", "Latitude": "26.0183", "Longitude": "-80.2648", "LineType": "LANDLINE"}, "Contacts": {"Contact": {"Name": "MEMORIAL HOSPITAL", "Address": "3501 JOHNSON ST", "City": "HOLLYWOOD", "State": "FL", "PostalCode": "33021-5421", "PhoneType": "BUSINESS", "Latitude": "26.018292", "Longitude": "-80.178443", "SICCode": "80620000", "SICDesc": "GENERAL MEDICAL AND SURGICAL HOSPITALS", "QualityScore": "HIGH"}}, "SMSAddress": null, "MMSAddress": null, "DateFirstSeen": null, "DateOfPorting": null, "NoteCodes": "1,2", "NoteDescriptions": "IsMailable,IsConnected", "TokensUsed": "65"}}}, {"PhoneInfoResponse": {"@xmlns": "http://www.serviceobjects.com", "@xmlns:i": "http://www.w3.org/2001/XMLSchema-instance", "PhoneInfo": {"Provider": {"Name": "BELLSOUTH SO CNTL", "City": "THIBODAUX", "State": "LOUISIANA", "Latitude": "29.7993", "Longitude": "-90.8205", "LineType": "LANDLINE"}, "Contacts": {"Contact": {"Name": "BRAUD MARIA MD", "Address": "970 S ACADIA RD", "City": "THIBODAUX", "State": "LA", "PostalCode": "70301-4978", "PhoneType": "BUSINESS", "Latitude": "29.783820", "Longitude": "-90.810663", "SICCode": "80110000", "SICDesc": "OFFICES AND CLINICS OF MEDICAL DOCTORS", "QualityScore": "LOW"}}, "SMSAddress": null, "MMSAddress": null, "DateFirstSeen": null, "DateOfPorting": null, "NoteCodes": "1,10,905", "NoteDescriptions": "IsMailable,IsPossibleDisconnected,INF", "TokensUsed": "65"}}}, {"PhoneInfoResponse": {"@xmlns": "http://www.serviceobjects.com", "@xmlns:i": "http://www.w3.org/2001/XMLSchema-instance", "PhoneInfo": {"Provider": {"Name": "CTSI, INC. - PA", "City": "HAZLETON", "State": "PENNSYLVANIA", "Latitude": "40.9607", "Longitude": "-75.9796", "LineType": "LANDLINE"}, "Contacts": {"Contact": {"Name": "ALDO J SURACI", "Address": "140 N SHERMAN CT", "City": "HAZLETON", "State": "PA", "PostalCode": "18201-5863", "PhoneType": "RESIDENTIAL", "Latitude": "40.958434", "Longitude": "-75.975972", "SICCode": "80110000", "SICDesc": "OFFICES AND CLINICS OF MEDICAL DOCTORS", "QualityScore": "HIGH"}}, "SMSAddress": null, "MMSAddress": null, "DateFirstSeen": null, "DateOfPorting": "2001-01-11", "NoteCodes": "1,2,3", "NoteDescriptions": "IsMailable,IsConnected,IsPorted", "TokensUsed": "65"}}}, {"PhoneInfoResponse": {"@xmlns": "http://www.serviceobjects.com", "@xmlns:i": "http://www.w3.org/2001/XMLSchema-instance", "PhoneInfo": {"Provider": {"Name": "FRONTIER NORTH - IN", "City": "TERRE HAUTE", "State": "INDIANA", "Latitude": "39.4691", "Longitude": "-87.384", "LineType": "LANDLINE"}, "Contacts": {"Contact": {"Name": "LARRY BRUNO", "Address": "518 S 24TH ST", "City": "TERRE HAUTE", "State": "IN", "PostalCode": "47803-2544", "PhoneType": "RESIDENTIAL", "Latitude": "39.460087", "Longitude": "-87.380119", "SICCode": null, "SICDesc": null, "QualityScore": "LOW"}}, "SMSAddress": null, "MMSAddress": null, "DateFirstSeen": null, "DateOfPorting": null, "NoteCodes": "1,10,905", "NoteDescriptions": "IsMailable,IsPossibleDisconnected,INF", "TokensUsed": "65"}}}, {"PhoneInfoResponse": {"@xmlns": "http://www.serviceobjects.com", "@xmlns:i": "http://www.w3.org/2001/XMLSchema-instance", "PhoneInfo": {"Provider": {"Name": "VERIZON NEW YORK INC", "City": "PLEASANTVILLE", "State": "NEW YORK", "Latitude": "41.1309", "Longitude": "-73.7981", "LineType": "LANDLINE"}, "Contacts": {"Contact": {"Name": "MARY LEE", "Address": "548 WESTCHESTER AVE", "City": "PORT CHESTER", "State": "NY", "PostalCode": "10573-2815", "PhoneType": "RESIDENTIAL", "Latitude": null, "Longitude": null, "SICCode": null, "SICDesc": null, "QualityScore": "HIGH"}}, "SMSAddress": null, "MMSAddress": null, "DateFirstSeen": null, "DateOfPorting": "2016-09-13", "NoteCodes": "1,2,3", "NoteDescriptions": "IsMailable,IsConnected,IsPorted", "TokensUsed": "65"}}}, {"PhoneInfoResponse": {"@xmlns": "http://www.serviceobjects.com", "@xmlns:i": "http://www.w3.org/2001/XMLSchema-instance", "PhoneInfo": {"Provider": {"Name": "BELLSOUTH SO BELL", "City": "SENECA", "State": "SOUTH CAROLINA", "Latitude": "34.6892", "Longitude": "-82.9494", "LineType": "LANDLINE"}, "Contacts": {"Contact": {"Name": "MEDICAL MANAGEMENT SERVICES INC", "Address": null, "City": "SENECA", "State": "SC", "PostalCode": "29678", "PhoneType": "BUSINESS", "Latitude": null, "Longitude": null, "SICCode": "87480000,80110000", "SICDesc": "BUSINESS CONSULTING, NEC,OFFICES AND CLINICS OF MEDICAL DOCTORS", "QualityScore": "LOW"}}, "SMSAddress": null, "MMSAddress": null, "DateFirstSeen": null, "DateOfPorting": null, "NoteCodes": "10,905", "NoteDescriptions": "IsPossibleDisconnected,INF", "TokensUsed": "65"}}}, {"PhoneInfoResponse": {"@xmlns": "http://www.serviceobjects.com", "@xmlns:i": "http://www.w3.org/2001/XMLSchema-instance", "PhoneInfo": {"Provider": {"Name": "CENTRAL TEL CO NV", "City": "LAS VEGAS", "State": "NEVADA", "Latitude": "36.1276", "Longitude": "-115.199", "LineType": "LANDLINE"}, "Contacts": {"Contact": {"Name": "NEVADA STATE BANK", "Address": null, "City": "NORTH LAS VEGAS", "State": "NV", "PostalCode": "89032", "PhoneType": "BUSINESS", "Latitude": null, "Longitude": null, "SICCode": null, "SICDesc": null, "QualityScore": "LOW"}}, "SMSAddress": null, "MMSAddress": null, "DateFirstSeen": null, "DateOfPorting": null, "NoteCodes": null, "NoteDescriptions": null, "TokensUsed": "65"}}}, {"PhoneInfoResponse": {"@xmlns": "http://www.serviceobjects.com", "@xmlns:i": "http://www.w3.org/2001/XMLSchema-instance", "PhoneInfo": {"Provider": {"Name": "FRONTIER CALIFORNIA", "City": "BARSTOW", "State": "CALIFORNIA", "Latitude": "34.9171", "Longitude": "-117.043", "LineType": "LANDLINE"}, "Contacts": {"Contact": {"Name": "ROBBIE BRAND", "Address": null, "City": "BARSTOW", "State": "CA", "PostalCode": "92311", "PhoneType": "RESIDENTIAL", "Latitude": null, "Longitude": null, "SICCode": null, "SICDesc": null, "QualityScore": "LOW"}}, "SMSAddress": null, "MMSAddress": null, "DateFirstSeen": null, "DateOfPorting": null, "NoteCodes": "10,905", "NoteDescriptions": "IsPossibleDisconnected,INF", "TokensUsed": "65"}}}, {"PhoneInfoResponse": {"@xmlns": "http://www.serviceobjects.com", "@xmlns:i": "http://www.w3.org/2001/XMLSchema-instance", "PhoneInfo": {"Provider": {"Name": "QWEST CORPORATION", "City": "COLORADO SPRINGS", "State": "COLORADO", "Latitude": "38.8457", "Longitude": "-104.754", "LineType": "LANDLINE"}, "SMSAddress": null, "MMSAddress": null, "DateFirstSeen": null, "DateOfPorting": null, "NoteCodes": "5", "NoteDescriptions": "IsUnknownContact", "TokensUsed": "35"}}}, {"PhoneInfoResponse": {"@xmlns": "http://www.serviceobjects.com", "@xmlns:i": "http://www.w3.org/2001/XMLSchema-instance", "PhoneInfo": {"Provider": {"Name": "AMERITECH OHIO", "City": "SALEM", "State": "OHIO", "Latitude": "40.8847", "Longitude": "-80.8696", "LineType": "LANDLINE"}, "Contacts": {"Contact": {"Name": "FAMILY HEALTH CARE OF COLUMBIANA COUNTY INC", "Address": "166 VINE ST", "City": "SALEM", "State": "OH", "PostalCode": "44460-2939", "PhoneType": "BUSINESS", "Latitude": "40.901509", "Longitude": "-80.850647", "SICCode": "80110000,80310000", "SICDesc": "OFFICES AND CLINICS OF MEDICAL DOCTORS,OFFICES AND CLINICS OF OSTEOPATHIC PHYSICIANS", "QualityScore": "LOW"}}, "SMSAddress": null, "MMSAddress": null, "DateFirstSeen": null, "DateOfPorting": null, "NoteCodes": "1,10,905", "NoteDescriptions": "IsMailable,IsPossibleDisconnected,INF", "TokensUsed": "65"}}}, {"PhoneInfoResponse": {"@xmlns": "http://www.serviceobjects.com", "@xmlns:i": "http://www.w3.org/2001/XMLSchema-instance", "PhoneInfo": {"Provider": {"Name": "QWEST CORPORATION", "City": "MESA", "State": "ARIZONA", "Latitude": "33.4171", "Longitude": "-111.761", "LineType": "LANDLINE"}, "Contacts": {"Contact": {"Name": "ASSOCIATED CHES", "Address": null, "City": "MESA", "State": "AZ", "PostalCode": "85205", "PhoneType": "BUSINESS", "Latitude": null, "Longitude": null, "SICCode": "80110000", "SICDesc": "OFFICES AND CLINICS OF MEDICAL DOCTORS", "QualityScore": "LOW"}}, "SMSAddress": null, "MMSAddress": null, "DateFirstSeen": null, "DateOfPorting": null, "NoteCodes": null, "NoteDescriptions": null, "TokensUsed": "65"}}}, {"PhoneInfoResponse": {"@xmlns": "http://www.serviceobjects.com", "@xmlns:i": "http://www.w3.org/2001/XMLSchema-instance", "PhoneInfo": {"Provider": {"Name": "SOUTHWESTERN BELL", "City": "GREENVILLE", "State": "TEXAS", "Latitude": "33.1506", "Longitude": "-96.1017", "LineType": "LANDLINE"}, "Contacts": {"Contact": {"Name": "HUNT REG MED CT", "Address": null, "City": "GREENVILLE", "State": "TX", "PostalCode": "75401", "PhoneType": "BUSINESS", "Latitude": null, "Longitude": null, "SICCode": null, "SICDesc": null, "QualityScore": "LOW"}}, "SMSAddress": null, "MMSAddress": null, "DateFirstSeen": null, "DateOfPorting": null, "NoteCodes": null, "NoteDescriptions": null, "TokensUsed": "65"}}}, {"PhoneInfoResponse": {"@xmlns": "http://www.serviceobjects.com", "@xmlns:i": "http://www.w3.org/2001/XMLSchema-instance", "PhoneInfo": {"Provider": {"Name": "PACIFIC BELL", "City": "FONTANA", "State": "CALIFORNIA", "Latitude": "34.0862", "Longitude": "-117.469", "LineType": "LANDLINE"}, "Contacts": {"Contact": {"Name": "MARIA PEREZ", "Address": "8929 OLEANDER AVE", "City": "FONTANA", "State": "CA", "PostalCode": "92335-2344", "PhoneType": "RESIDENTIAL", "Latitude": "34.090411", "Longitude": "-117.448981", "SICCode": null, "SICDesc": null, "QualityScore": "HIGH"}}, "SMSAddress": null, "MMSAddress": null, "DateFirstSeen": null, "DateOfPorting": null, "NoteCodes": "1,2", "NoteDescriptions": "IsMailable,IsConnected", "TokensUsed": "65"}}}, {"PhoneInfoResponse": {"@xmlns": "http://www.serviceobjects.com", "@xmlns:i": "http://www.w3.org/2001/XMLSchema-instance", "PhoneInfo": {"Provider": {"Name": "VERIZON MARYLAND INC", "City": "SILVER SPRING", "State": "MARYLAND", "Latitude": "39.0469", "Longitude": "-77.0279", "LineType": "LANDLINE"}, "Contacts": {"Contact": {"Name": "COMMUNITY RADIOLOGY ASSOCIATES INC", "Address": "10801 LOCKWOOD DR STE 140", "City": "SILVER SPRING", "State": "MD", "PostalCode": "20901-1559", "PhoneType": "BUSINESS", "Latitude": "39.033552", "Longitude": "-77.001381", "SICCode": null, "SICDesc": null, "QualityScore": "LOW"}}, "SMSAddress": null, "MMSAddress": null, "DateFirstSeen": null, "DateOfPorting": null, "NoteCodes": "1,10,905", "NoteDescriptions": "IsMailable,IsPossibleDisconnected,INF", "TokensUsed": "65"}}}, {"PhoneInfoResponse": {"@xmlns": "http://www.serviceobjects.com", "@xmlns:i": "http://www.w3.org/2001/XMLSchema-instance", "PhoneInfo": {"Provider": {"Name": "VERIZON MARYLAND INC", "City": "ESSEX", "State": "MARYLAND", "Latitude": "39.2948", "Longitude": "-76.4365", "LineType": "LANDLINE"}, "Contacts": {"Contact": {"Name": "MIDDLE RIVER FAMILY PRACTICE PHYSICIANS SURGEONS", "Address": "107 BEACON RD", "City": "MIDDLE RIVER", "State": "MD", "PostalCode": "21220-3504", "PhoneType": "BUSINESS", "Latitude": "39.335856", "Longitude": "-76.456047", "SICCode": "80110000,80310000", "SICDesc": "OFFICES AND CLINICS OF MEDICAL DOCTORS,OFFICES AND CLINICS OF OSTEOPATHIC PHYSICIANS", "QualityScore": "HIGH"}}, "SMSAddress": null, "MMSAddress": null, "DateFirstSeen": null, "DateOfPorting": null, "NoteCodes": "1,2", "NoteDescriptions": "IsMailable,IsConnected", "TokensUsed": "65"}}}, {"PhoneInfoResponse": {"@xmlns": "http://www.serviceobjects.com", "@xmlns:i": "http://www.w3.org/2001/XMLSchema-instance", "PhoneInfo": {"Provider": {"Name": "VERIZON MARYLAND INC", "City": "BALTIMORE", "State": "MARYLAND", "Latitude": "39.3157", "Longitude": "-76.6278", "LineType": "LANDLINE"}, "Contacts": {"Contact": {"Name": "JOHNS HOPKINS H", "Address": "600 N WOLFE ST", "City": "BALTIMORE", "State": "MD", "PostalCode": "21287-0005", "PhoneType": "BUSINESS", "Latitude": null, "Longitude": null, "SICCode": null, "SICDesc": null, "QualityScore": "LOW"}}, "SMSAddress": null, "MMSAddress": null, "DateFirstSeen": null, "DateOfPorting": null, "NoteCodes": "1", "NoteDescriptions": "IsMailable", "TokensUsed": "65"}}}, {"PhoneInfoResponse": {"@xmlns": "http://www.serviceobjects.com", "@xmlns:i": "http://www.w3.org/2001/XMLSchema-instance", "PhoneInfo": {"Provider": {"Name": "LOGIX COMM - TX", "City": "HOUSTON", "State": "TEXAS", "Latitude": "29.7652", "Longitude": "-95.4071", "LineType": "LANDLINE"}, "Contacts": {"Contact": {"Name": "E RUSSELL WEIDMAN DR PHYSICIANS GENERAL", "Address": "7400 FANNIN ST STE 850", "City": "HOUSTON", "State": "TX", "PostalCode": "77054-1951", "PhoneType": "BUSINESS", "Latitude": "29.695136", "Longitude": "-95.400729", "SICCode": "80110000", "SICDesc": "OFFICES AND CLINICS OF MEDICAL DOCTORS", "QualityScore": "HIGH"}}, "SMSAddress": null, "MMSAddress": null, "DateFirstSeen": null, "DateOfPorting": "2004-11-04", "NoteCodes": "1,2,3", "NoteDescriptions": "IsMailable,IsConnected,IsPorted", "TokensUsed": "65"}}}, {"PhoneInfoResponse": {"@xmlns": "http://www.serviceobjects.com", "@xmlns:i": "http://www.w3.org/2001/XMLSchema-instance", "PhoneInfo": {"Provider": {"Name": "CENTURYLINK - TN", "City": "JOHNSON CITY", "State": "TENNESSEE", "Latitude": "36.3362", "Longitude": "-82.3819", "LineType": "LANDLINE"}, "Contacts": {"Contact": {"Name": "PARADISE MASSAGE AND SKIN CARE MASSAGE THERAPISTS", "Address": "605 BAXTER ST", "City": "JOHNSON CITY", "State": "TN", "PostalCode": "37601-4003", "PhoneType": "BUSINESS", "Latitude": "36.327156", "Longitude": "-82.352911", "SICCode": null, "SICDesc": null, "QualityScore": "HIGH"}}, "SMSAddress": null, "MMSAddress": null, "DateFirstSeen": null, "DateOfPorting": null, "NoteCodes": "1,2", "NoteDescriptions": "IsMailable,IsConnected", "TokensUsed": "65"}}}, {"PhoneInfoResponse": {"@xmlns": "http://www.serviceobjects.com", "@xmlns:i": "http://www.w3.org/2001/XMLSchema-instance", "PhoneInfo": {"Provider": {"Name": "QWEST CORPORATION", "City": "DULUTH", "State": "MINNESOTA", "Latitude": "46.8017", "Longitude": "-92.1516", "LineType": "LANDLINE"}, "Contacts": {"Contact": {"Name": "ERIKA MILES", "Address": "2868 E LISMORE RD", "City": "DULUTH", "State": "MN", "PostalCode": "55804-9614", "PhoneType": "RESIDENTIAL", "Latitude": "46.938123", "Longitude": "-91.975718", "SICCode": null, "SICDesc": null, "QualityScore": "LOW"}}, "SMSAddress": null, "MMSAddress": null, "DateFirstSeen": null, "DateOfPorting": null, "NoteCodes": "1,10,905", "NoteDescriptions": "IsMailable,IsPossibleDisconnected,INF", "TokensUsed": "65"}}}, {"PhoneInfoResponse": {"@xmlns": "http://www.serviceobjects.com", "@xmlns:i": "http://www.w3.org/2001/XMLSchema-instance", "PhoneInfo": {"Provider": {"Name": "BELLSOUTH SO BELL", "City": "COLUMBIA", "State": "SOUTH CAROLINA", "Latitude": "34.0274", "Longitude": "-81.0152", "LineType": "LANDLINE"}, "Contacts": {"Contact": {"Name": "KEITH D LOBEL", "Address": "100 SUNSET BLVD APT 403", "City": "WEST COLUMBIA", "State": "SC", "PostalCode": "29169-7565", "PhoneType": "RESIDENTIAL", "Latitude": "33.995736", "Longitude": "-81.057076", "SICCode": null, "SICDesc": null, "QualityScore": "HIGH"}}, "SMSAddress": null, "MMSAddress": null, "DateFirstSeen": null, "DateOfPorting": null, "NoteCodes": "1,2", "NoteDescriptions": "IsMailable,IsConnected", "TokensUsed": "65"}}}, {"PhoneInfoResponse": {"@xmlns": "http://www.serviceobjects.com", "@xmlns:i": "http://www.w3.org/2001/XMLSchema-instance", "PhoneInfo": {"Provider": {"Name": "QWEST CORPORATION", "City": "YUMA", "State": "ARIZONA", "Latitude": "32.6806", "Longitude": "-114.544", "LineType": "LANDLINE"}, "Contacts": {"Contact": {"Name": "E SW", "Address": null, "City": "YUMA", "State": "AZ", "PostalCode": "85365", "PhoneType": "RESIDENTIAL", "Latitude": null, "Longitude": null, "SICCode": "80110000", "SICDesc": "OFFICES AND CLINICS OF MEDICAL DOCTORS", "QualityScore": "MED"}}, "SMSAddress": null, "MMSAddress": null, "DateFirstSeen": null, "DateOfPorting": null, "NoteCodes": "2", "NoteDescriptions": "IsConnected", "TokensUsed": "65"}}}, {"PhoneInfoResponse": {"@xmlns": "http://www.serviceobjects.com", "@xmlns:i": "http://www.w3.org/2001/XMLSchema-instance", "PhoneInfo": {"Provider": {"Name": "CBTS TECH SOL LLC-OH", "City": "CINCINNATI", "State": "OHIO", "Latitude": "39.17", "Longitude": "-84.4929", "LineType": "LANDLINE"}, "SMSAddress": null, "MMSAddress": null, "DateFirstSeen": null, "DateOfPorting": "2016-05-17", "NoteCodes": "3,5", "NoteDescriptions": "IsPorted,IsUnknownContact", "TokensUsed": "35"}}}, {"PhoneInfoResponse": {"@xmlns": "http://www.serviceobjects.com", "@xmlns:i": "http://www.w3.org/2001/XMLSchema-instance", "PhoneInfo": {"Provider": {"Name": "CENTURYLINK", "City": "LEHIGH ACRES", "State": "FLORIDA", "Latitude": "26.6053", "Longitude": "-81.652", "LineType": "LANDLINE"}, "Contacts": {"Contact": {"Name": "FLORIDA STATE OF", "Address": null, "City": "LEHIGH ACRES", "State": "FL", "PostalCode": "33936", "PhoneType": "BUSINESS", "Latitude": null, "Longitude": null, "SICCode": "80110000,80310000", "SICDesc": "OFFICES AND CLINICS OF MEDICAL DOCTORS,OFFICES AND CLINICS OF OSTEOPATHIC PHYSICIANS", "QualityScore": "LOW"}}, "SMSAddress": null, "MMSAddress": null, "DateFirstSeen": null, "DateOfPorting": null, "NoteCodes": null, "NoteDescriptions": null, "TokensUsed": "65"}}}, {"PhoneInfoResponse": {"@xmlns": "http://www.serviceobjects.com", "@xmlns:i": "http://www.w3.org/2001/XMLSchema-instance", "PhoneInfo": {"Provider": {"Name": "PACIFIC BELL", "City": "TEMPLETON", "State": "CALIFORNIA", "Latitude": "35.5436", "Longitude": "-120.695", "LineType": "LANDLINE"}, "Contacts": {"Contact": {"Name": "B HENDRIK", "Address": "292 POSADA LN STE D", "City": "TEMPLETON", "State": "CA", "PostalCode": "93465-4054", "PhoneType": "RESIDENTIAL", "Latitude": "35.553142", "Longitude": "-120.721424", "SICCode": "80110000,80310000", "SICDesc": "OFFICES AND CLINICS OF MEDICAL DOCTORS,OFFICES AND CLINICS OF OSTEOPATHIC PHYSICIANS", "QualityScore": "LOW"}}, "SMSAddress": null, "MMSAddress": null, "DateFirstSeen": null, "DateOfPorting": null, "NoteCodes": "1", "NoteDescriptions": "IsMailable", "TokensUsed": "65"}}}, {"PhoneInfoResponse": {"@xmlns": "http://www.serviceobjects.com", "@xmlns:i": "http://www.w3.org/2001/XMLSchema-instance", "Error": {"Type": "Authorization", "TypeCode": "1", "Desc": "The total allowable number of transactions for this license key has been exceeded.", "DescCode": "4"}}}, {"PhoneInfoResponse": {"@xmlns": "http://www.serviceobjects.com", "@xmlns:i": "http://www.w3.org/2001/XMLSchema-instance", "Error": {"Type": "Authorization", "TypeCode": "1", "Desc": "The total allowable number of transactions for this license key has been exceeded.", "DescCode": "4"}}}, {"PhoneInfoResponse": {"@xmlns": "http://www.serviceobjects.com", "@xmlns:i": "http://www.w3.org/2001/XMLSchema-instance", "Error": {"Type": "Authorization", "TypeCode": "1", "Desc": "The total allowable number of transactions for this license key has been exceeded.", "DescCode": "4"}}}, {"PhoneInfoResponse": {"@xmlns": "http://www.serviceobjects.com", "@xmlns:i": "http://www.w3.org/2001/XMLSchema-instance", "Error": {"Type": "Authorization", "TypeCode": "1", "Desc": "The total allowable number of transactions for this license key has been exceeded.", "DescCode": "4"}}}, {"PhoneInfoResponse": {"@xmlns": "http://www.serviceobjects.com", "@xmlns:i": "http://www.w3.org/2001/XMLSchema-instance", "Error": {"Type": "Authorization", "TypeCode": "1", "Desc": "The total allowable number of transactions for this license key has been exceeded.", "DescCode": "4"}}}, {"PhoneInfoResponse": {"@xmlns": "http://www.serviceobjects.com", "@xmlns:i": "http://www.w3.org/2001/XMLSchema-instance", "Error": {"Type": "Authorization", "TypeCode": "1", "Desc": "The total allowable number of transactions for this license key has been exceeded.", "DescCode": "4"}}}, {"PhoneInfoResponse": {"@xmlns": "http://www.serviceobjects.com", "@xmlns:i": "http://www.w3.org/2001/XMLSchema-instance", "Error": {"Type": "Authorization", "TypeCode": "1", "Desc": "The total allowable number of transactions for this license key has been exceeded.", "DescCode": "4"}}}, {"PhoneInfoResponse": {"@xmlns": "http://www.serviceobjects.com", "@xmlns:i": "http://www.w3.org/2001/XMLSchema-instance", "Error": {"Type": "Authorization", "TypeCode": "1", "Desc": "The total allowable number of transactions for this license key has been exceeded.", "DescCode": "4"}}}, {"PhoneInfoResponse": {"@xmlns": "http://www.serviceobjects.com", "@xmlns:i": "http://www.w3.org/2001/XMLSchema-instance", "Error": {"Type": "Authorization", "TypeCode": "1", "Desc": "The total allowable number of transactions for this license key has been exceeded.", "DescCode": "4"}}}, {"PhoneInfoResponse": {"@xmlns": "http://www.serviceobjects.com", "@xmlns:i": "http://www.w3.org/2001/XMLSchema-instance", "Error": {"Type": "Authorization", "TypeCode": "1", "Desc": "The total allowable number of transactions for this license key has been exceeded.", "DescCode": "4"}}}, {"PhoneInfoResponse": {"@xmlns": "http://www.serviceobjects.com", "@xmlns:i": "http://www.w3.org/2001/XMLSchema-instance", "Error": {"Type": "Authorization", "TypeCode": "1", "Desc": "The total allowable number of transactions for this license key has been exceeded.", "DescCode": "4"}}}, {"PhoneInfoResponse": {"@xmlns": "http://www.serviceobjects.com", "@xmlns:i": "http://www.w3.org/2001/XMLSchema-instance", "Error": {"Type": "Authorization", "TypeCode": "1", "Desc": "The total allowable number of transactions for this license key has been exceeded.", "DescCode": "4"}}}, {"PhoneInfoResponse": {"@xmlns": "http://www.serviceobjects.com", "@xmlns:i": "http://www.w3.org/2001/XMLSchema-instance", "Error": {"Type": "Authorization", "TypeCode": "1", "Desc": "The total allowable number of transactions for this license key has been exceeded.", "DescCode": "4"}}}, {"PhoneInfoResponse": {"@xmlns": "http://www.serviceobjects.com", "@xmlns:i": "http://www.w3.org/2001/XMLSchema-instance", "Error": {"Type": "Authorization", "TypeCode": "1", "Desc": "The total allowable number of transactions for this license key has been exceeded.", "DescCode": "4"}}}, {"PhoneInfoResponse": {"@xmlns": "http://www.serviceobjects.com", "@xmlns:i": "http://www.w3.org/2001/XMLSchema-instance", "Error": {"Type": "Authorization", "TypeCode": "1", "Desc": "The total allowable number of transactions for this license key has been exceeded.", "DescCode": "4"}}}, {"PhoneInfoResponse": {"@xmlns": "http://www.serviceobjects.com", "@xmlns:i": "http://www.w3.org/2001/XMLSchema-instance", "Error": {"Type": "Authorization", "TypeCode": "1", "Desc": "The total allowable number of transactions for this license key has been exceeded.", "DescCode": "4"}}}, {"PhoneInfoResponse": {"@xmlns": "http://www.serviceobjects.com", "@xmlns:i": "http://www.w3.org/2001/XMLSchema-instance", "Error": {"Type": "Authorization", "TypeCode": "1", "Desc": "The total allowable number of transactions for this license key has been exceeded.", "DescCode": "4"}}}, {"PhoneInfoResponse": {"@xmlns": "http://www.serviceobjects.com", "@xmlns:i": "http://www.w3.org/2001/XMLSchema-instance", "Error": {"Type": "Authorization", "TypeCode": "1", "Desc": "The total allowable number of transactions for this license key has been exceeded.", "DescCode": "4"}}}, {"PhoneInfoResponse": {"@xmlns": "http://www.serviceobjects.com", "@xmlns:i": "http://www.w3.org/2001/XMLSchema-instance", "Error": {"Type": "Authorization", "TypeCode": "1", "Desc": "The total allowable number of transactions for this license key has been exceeded.", "DescCode": "4"}}}, {"PhoneInfoResponse": {"@xmlns": "http://www.serviceobjects.com", "@xmlns:i": "http://www.w3.org/2001/XMLSchema-instance", "Error": {"Type": "Authorization", "TypeCode": "1", "Desc": "The total allowable number of transactions for this license key has been exceeded.", "DescCode": "4"}}}, {"PhoneInfoResponse": {"@xmlns": "http://www.serviceobjects.com", "@xmlns:i": "http://www.w3.org/2001/XMLSchema-instance", "Error": {"Type": "Authorization", "TypeCode": "1", "Desc": "The total allowable number of transactions for this license key has been exceeded.", "DescCode": "4"}}}, {"PhoneInfoResponse": {"@xmlns": "http://www.serviceobjects.com", "@xmlns:i": "http://www.w3.org/2001/XMLSchema-instance", "Error": {"Type": "Authorization", "TypeCode": "1", "Desc": "The total allowable number of transactions for this license key has been exceeded.", "DescCode": "4"}}}, {"PhoneInfoResponse": {"@xmlns": "http://www.serviceobjects.com", "@xmlns:i": "http://www.w3.org/2001/XMLSchema-instance", "Error": {"Type": "Authorization", "TypeCode": "1", "Desc": "The total allowable number of transactions for this license key has been exceeded.", "DescCode": "4"}}}, {"PhoneInfoResponse": {"@xmlns": "http://www.serviceobjects.com", "@xmlns:i": "http://www.w3.org/2001/XMLSchema-instance", "Error": {"Type": "Authorization", "TypeCode": "1", "Desc": "The total allowable number of transactions for this license key has been exceeded.", "DescCode": "4"}}}]