[{"PhoneInfoResponse": {"@xmlns": "http://www.serviceobjects.com", "@xmlns:i": "http://www.w3.org/2001/XMLSchema-instance", "PhoneInfo": {"Provider": {"Name": "FRONTIER COMM OF TX", "City": "SAN ANGELO", "State": "TEXAS", "Latitude": "31.455", "Longitude": "-100.451", "LineType": "LANDLINE"}, "Contacts": {"Contact": {"Name": "WEST TEXAS MEDICAL ASSOCIATES", "Address": null, "City": "SAN ANGELO", "State": "TX", "PostalCode": "76901", "PhoneType": "BUSINESS", "Latitude": null, "Longitude": null, "SICCode": null, "SICDesc": null, "QualityScore": "MED"}}, "SMSAddress": null, "MMSAddress": null, "DateFirstSeen": null, "DateOfPorting": null, "NoteCodes": "2", "NoteDescriptions": "IsConnected", "TokensUsed": "65"}}}, {"PhoneInfoResponse": {"@xmlns": "http://www.serviceobjects.com", "@xmlns:i": "http://www.w3.org/2001/XMLSchema-instance", "PhoneInfo": {"Provider": {"Name": "TELEPORT COMM AM-IL", "City": "ELWOOD", "State": "ILLINOIS", "Latitude": "41.424", "Longitude": "-88.0843", "LineType": "LANDLINE"}, "Contacts": {"Contact": {"Name": "NW MEMORIAL HOS", "Address": null, "City": "CHICAGO", "State": "IL", "PostalCode": "60611", "PhoneType": "BUSINESS", "Latitude": null, "Longitude": null, "SICCode": null, "SICDesc": null, "QualityScore": "LOW"}}, "SMSAddress": null, "MMSAddress": null, "DateFirstSeen": null, "DateOfPorting": "2019-04-01", "NoteCodes": "3", "NoteDescriptions": "IsPorted", "TokensUsed": "65"}}}, {"PhoneInfoResponse": {"@xmlns": "http://www.serviceobjects.com", "@xmlns:i": "http://www.w3.org/2001/XMLSchema-instance", "PhoneInfo": {"Provider": {"Name": "TELEPORT COMM AM-OH", "City": "CLEVELAND", "State": "OHIO", "Latitude": "41.4801", "Longitude": "-81.6479", "LineType": "LANDLINE"}, "Contacts": {"Contact": {"Name": "METROHEALTH MEDICAL CENTER", "Address": "2500 METROHEALTH DR", "City": "CLEVELAND", "State": "OH", "PostalCode": "44109-1900", "PhoneType": "BUSINESS", "Latitude": "41.462773", "Longitude": "-81.699258", "SICCode": null, "SICDesc": null, "QualityScore": "LOW"}}, "SMSAddress": null, "MMSAddress": null, "DateFirstSeen": null, "DateOfPorting": "2019-09-12", "NoteCodes": "1,3", "NoteDescriptions": "IsMailable,IsPorted", "TokensUsed": "65"}}}, {"PhoneInfoResponse": {"@xmlns": "http://www.serviceobjects.com", "@xmlns:i": "http://www.w3.org/2001/XMLSchema-instance", "PhoneInfo": {"Provider": {"Name": "AT&T, INC. - PR", "City": "GUAYNABO", "State": "PUERTO RICO", "Latitude": "18.3864", "Longitude": "-66.1143", "LineType": "LANDLINE"}, "Contacts": {"Contact": {"Name": "RADIATION THERAPY & CANCER INSTITUTE", "Address": null, "City": "GUAYNABO", "State": "PR", "PostalCode": "00968", "PhoneType": "BUSINESS", "Latitude": null, "Longitude": null, "SICCode": null, "SICDesc": null, "QualityScore": "LOW"}}, "SMSAddress": null, "MMSAddress": null, "DateFirstSeen": null, "DateOfPorting": "2005-06-03", "NoteCodes": "3", "NoteDescriptions": "IsPorted", "TokensUsed": "65"}}}, {"PhoneInfoResponse": {"@xmlns": "http://www.serviceobjects.com", "@xmlns:i": "http://www.w3.org/2001/XMLSchema-instance", "PhoneInfo": {"Provider": {"Name": "PAETEC COMM - NY", "City": "BUFFALO", "State": "NEW YORK", "Latitude": "42.9154", "Longitude": "-78.8168", "LineType": "LANDLINE"}, "Contacts": {"Contact": {"Name": "ROSWELL PARK CANCER INSTITUTE CHARITABLE", "Address": "699 ELM ST", "City": "BUFFALO", "State": "NY", "PostalCode": "14263", "PhoneType": "BUSINESS", "Latitude": null, "Longitude": null, "SICCode": "80110102", "SICDesc": "ENDOCRINOLOGIST", "QualityScore": "HIGH"}}, "SMSAddress": null, "MMSAddress": null, "DateFirstSeen": null, "DateOfPorting": "2010-03-02", "NoteCodes": "2,3", "NoteDescriptions": "IsConnected,IsPorted", "TokensUsed": "65"}}}]